{"type":"FeatureCollection","features":[
{"type":"Feature","geometry":{"type":"Point","coordinates":[75.8422152,30.8896149]},"properties":{"amenity":"post_office","created_by":"Potlatch 0.5d"}},
{"type":"Feature","geometry":{"type":"Point","coordinates":[77.6008383,12.8980535]},"properties":{"amenity":"post_office","name":"IIMB post office - Bilekahalli","name:kn":"ಐಐಎಂಬಿ ಅಂಚೆ ಕಛೇರಿ - ಬಿಲೆಕೆಹಳ್ಳಿ","postal_code":"560076"}},
{"type":"Feature","geometry":{"type":"Point","coordinates":[80.2573785,13.039407]},"properties":{"amenity":"post_office","name":"Alwarpet","postal_code":"600018"}},
{"type":"Feature","geometry":{"type":"Point","coordinates":[77.6266252,12.9271867]},"properties":{"amenity":"post_office","created_by":"Potlatch 0.10c","name":"Koramangala 3rd Block","name:kn":"ಕೋರಮಂಗಲ ೩ನೇ ಹಂತ"}},
{"type":"Feature","geometry":{"type":"Point","coordinates":[80.2430157,13.0605534]},"properties":{"amenity":"post_office","name":"Nungambakkam"}},
{"type":"Feature","geometry":{"type":"Point","coordinates":[77.0479624,28.473621]},"properties":{"amenity":"post_office","created_by":"Potlatch 0.9a"}},
{"type":"Feature","geometry":{"type":"Point","coordinates":[77.0480053,28.473206]},"properties":{"amenity":"post_office","created_by":"Potlatch 0.9a"}},
{"type":"Feature","geometry":{"type":"Point","coordinates":[79.1723325,26.6618467]},"properties":{"amenity":"post_office","created_by":"Potlatch 0.9a","postal_code":"206124"}},
{"type":"Feature","geometry":{"type":"Point","coordinates":[77.0315003,28.4620809]},"properties":{"amenity":"post_office","created_by":"Potlatch 0.9a"}},
{"type":"Feature","geometry":{"type":"Point","coordinates":[87.3179349,23.5688077]},"properties":{"amenity":"post_office","name":"B-Zone Post Office"}},
{"type":"Feature","geometry":{"type":"Point","coordinates":[82.9825623,25.3356089]},"properties":{"amenity":"post_office"}},
{"type":"Feature","geometry":{"type":"Point","coordinates":[92.74135,11.66583]},"properties":{"amenity":"post_office"}},
{"type":"Feature","geometry":{"type":"Point","coordinates":[92.74585,11.67188]},"properties":{"amenity":"post_office","name":"Aberdeen Bazar Post Office"}},
{"type":"Feature","geometry":{"type":"Point","coordinates":[80.2075642,13.0846666]},"properties":{"amenity":"post_office","name":"Anna Nagar post office"}},
{"type":"Feature","geometry":{"type":"Point","coordinates":[77.5665181,13.0139623]},"properties":{"amenity":"post_office","name":"IISc Post Office","name:kn":"ಐಐಎಸ್ಇ ಅಂಚೆ ಕಛೇರಿ"}},
{"type":"Feature","geometry":{"type":"Point","coordinates":[80.2485425,13.0474874]},"properties":{"amenity":"post_office","name":"Teynampet West","postal_code":"600006"}},
{"type":"Feature","geometry":{"type":"Point","coordinates":[80.2473014,13.0397372]},"properties":{"amenity":"post_office","name":"Teynampet South"}},
{"type":"Feature","geometry":{"type":"Point","coordinates":[80.2591738,13.0314918]},"properties":{"amenity":"post_office"}},
{"type":"Feature","geometry":{"type":"Point","coordinates":[80.2528387,13.0380671]},"properties":{"amenity":"post_office","created_by":"Potlatch 0.10f","name":"Eldams Road Post Office"}},
{"type":"Feature","geometry":{"type":"Point","coordinates":[77.583314,12.9303756]},"properties":{"amenity":"post_office","name":"Jayanagar 3rd Block PO","name:kn":"ಅಂಚೆ ಕಛೇರಿ"}},
{"type":"Feature","geometry":{"type":"Point","coordinates":[77.6630046,12.8398359]},"properties":{"amenity":"post_office","name":"Electronics City Post Office","name:kn":"ಎಲೆಕ್ಟ್ರಾನಿಕ್ಸ್ ಸಿಟಿ ಅಂಚೆ ಕಚೇರಿ","operator":"India Post","operator:wikidata":"Q3519720","phone":"+918028520119"}},
{"type":"Feature","geometry":{"type":"Point","coordinates":[80.2769884,13.0874773]},"properties":{"amenity":"post_office"}},
{"type":"Feature","geometry":{"type":"Point","coordinates":[77.6359498,12.9608935]},"properties":{"amenity":"post_office","name":"Domlur Post office","name:kn":"ದೊಮಲೂರು ಅಂಚೆ ಕಚೇರಿ","postal_code":"560071"}},
{"type":"Feature","geometry":{"type":"Point","coordinates":[80.1904075,12.9805594]},"properties":{"amenity":"post_office"}},
{"type":"Feature","geometry":{"type":"Point","coordinates":[80.1987969,12.9631622]},"properties":{"amenity":"post_office"}},
{"type":"Feature","geometry":{"type":"Point","coordinates":[80.1876904,12.9890986]},"properties":{"amenity":"post_office","created_by":"Potlatch 0.10f"}},
{"type":"Feature","geometry":{"type":"Point","coordinates":[78.5255931,17.4202457]},"properties":{"amenity":"post_office","created_by":"Potlatch 0.10f","name":"post office","name:en":"post office"}},
{"type":"Feature","geometry":{"type":"Point","coordinates":[79.8346071,11.9363203]},"properties":{"addr:city":"Puducherry","addr:postcode":"605001","addr:street":"François Martin Street","amenity":"post_office","name":"India Post - Sri Aurobindo Ashram","name:fr":"Bureau de poste de Sri Aurobindo Ashram","opening_hours":"Mo-Su,PH 07:00-18:00","operator":"India Post","operator:wikidata":"Q3519720","operator:wikipedia":"en:India Post","wheelchair":"yes"}},
{"type":"Feature","geometry":{"type":"Point","coordinates":[74.866476,31.6377424]},"properties":{"addr:city":"Amritsar","addr:postcode":"143001","addr:street":"Court Rd","amenity":"post_office","name":"Head Post Office Amrisar","operator":"Governent","postal_code":"143001"}},
{"type":"Feature","geometry":{"type":"Point","coordinates":[76.950568,11.0106209]},"properties":{"amenity":"post_office","check_date":"2024-10-24","name":"Head Post Office"}},
{"type":"Feature","geometry":{"type":"Point","coordinates":[73.2398525,19.1634091]},"properties":{"amenity":"post_office","created_by":"Potlatch 0.10f","name":"Kulgaon Postoffice"}},
{"type":"Feature","geometry":{"type":"Point","coordinates":[80.2040134,13.055399]},"properties":{"amenity":"post_office","created_by":"Potlatch 0.10f","name":"Saligram Post office"}},
{"type":"Feature","geometry":{"type":"Point","coordinates":[78.3910575,17.4416163]},"properties":{"amenity":"post_office","name":"Cyberabad Post Office"}},
{"type":"Feature","geometry":{"type":"Point","coordinates":[70.9081213,26.9137522]},"properties":{"amenity":"post_office","operator":"India Post","operator:wikidata":"Q3519720"}},
{"type":"Feature","geometry":{"type":"Point","coordinates":[80.1554845,12.5041911]},"properties":{"amenity":"post_office","created_by":"JOSM"}},
{"type":"Feature","geometry":{"type":"Point","coordinates":[73.0230635,26.28605]},"properties":{"amenity":"post_office","name":"Central Post Office","name:ur":"سنٹرل پوسٹ آفس"}},
{"type":"Feature","geometry":{"type":"Point","coordinates":[77.0436967,28.416425]},"properties":{"amenity":"post_office","name":"South City II Post Office","pin_code":"122018"}},
{"type":"Feature","geometry":{"type":"Point","coordinates":[73.6904241,24.5915574]},"properties":{"addr:postcode":"313001","addr:street":"Near BSNL Shop, Chetak Circle, Madhuban","amenity":"post_office","name":"Main Post Office","opening_hours":"Mo-Su 10:00-18:00"}},
{"type":"Feature","geometry":{"type":"Point","coordinates":[77.6214543,12.9298186]},"properties":{"addr:street":"Mahayogi Vemana Road","amenity":"post_office","name":"St Johns Post Office"}},
{"type":"Feature","geometry":{"type":"Point","coordinates":[77.5860466,12.9238628]},"properties":{"amenity":"post_office","name":"Jayanagar 4th Block Post Office","name:kn":"ಅಂಚೆ ಕಛೇರಿ"}},
{"type":"Feature","geometry":{"type":"Point","coordinates":[77.576528,12.9224908]},"properties":{"amenity":"post_office","name:kn":"ಅಂಚೆ ಕಛೇರಿ"}},
{"type":"Feature","geometry":{"type":"Point","coordinates":[79.3504113,13.6777919]},"properties":{"amenity":"post_office","name":"Tirumala Post and Telegraph Office","name:kn":"ತಿರುಮಲ ಅಂಚೆ ಕಛೇರಿ"}},
{"type":"Feature","geometry":{"type":"Point","coordinates":[80.2656369,13.0261502]},"properties":{"amenity":"post_office","check_date":"2024-05-22","internet_access":"no","name":"Raja Annamalai Puram Post Office","name:en":"Raja Annamalai Puram Post Office","payment:cards":"no","payment:cash":"yes","payment:credit_cards":"no","payment:debit_cards":"no","polling_station":"no","wheelchair":"yes"}},
{"type":"Feature","geometry":{"type":"Point","coordinates":[76.6192635,9.4244651]},"properties":{"amenity":"post_office","name":"Mundiappally PO"}},
{"type":"Feature","geometry":{"type":"Point","coordinates":[77.219296,28.5895467]},"properties":{"addr:postcode":"110003","addr:street":"Lodhi Road","amenity":"post_office","name":"Head Post Office (GPO)","wheelchair":"limited"}},
{"type":"Feature","geometry":{"type":"Point","coordinates":[72.804561,18.9554449]},"properties":{"amenity":"post_office","name":"Malabar Hill Post Office","postal_code":"400006"}},
{"type":"Feature","geometry":{"type":"Point","coordinates":[80.2547402,13.0594542]},"properties":{"amenity":"post_office","name":"Greams Road"}},
{"type":"Feature","geometry":{"type":"Point","coordinates":[72.8233549,18.9296681]},"properties":{"amenity":"post_office","name":"New Yogakshema","postal_code":"400021"}},
{"type":"Feature","geometry":{"type":"Point","coordinates":[78.1322291,9.9316574]},"properties":{"amenity":"post_office","name":"Tallakulam Post Office"}},
{"type":"Feature","geometry":{"type":"Point","coordinates":[77.5531101,13.0508316]},"properties":{"amenity":"post_office","name":"Jalahalli Post Office","name:kn":"ಜಾಲಹಳ್ಳಿ ಅಂಚೆ ಕಛೇರಿ","wheelchair":"no"}},
{"type":"Feature","geometry":{"type":"Point","coordinates":[78.8095697,10.2492111]},"properties":{"amenity":"post_office","name":"Rayavaram Post Office"}},
{"type":"Feature","geometry":{"type":"Point","coordinates":[76.0978932,10.9209056]},"properties":{"amenity":"post_office","name":"Edayur North Post Office"}},
{"type":"Feature","geometry":{"type":"Point","coordinates":[76.3857581,32.1729905]},"properties":{"amenity":"post_office","name":"Yol Post Office"}},
{"type":"Feature","geometry":{"type":"Point","coordinates":[75.8035385,26.917309]},"properties":{"amenity":"post_office","name":"Central Post GPO"}},
{"type":"Feature","geometry":{"type":"Point","coordinates":[75.82549,26.92336]},"properties":{"amenity":"post_office","name":"Post Bazar"}},
{"type":"Feature","geometry":{"type":"Point","coordinates":[77.5928265,13.0216684]},"properties":{"amenity":"post_office","name":"Rabindranath Tagore Nagar","name:kn":"ರವೀಂದ್ರನಾಥ ಠಾಗೋರ್ ನಗರ"}},
{"type":"Feature","geometry":{"type":"Point","coordinates":[76.9055257,31.5325888]},"properties":{"amenity":"post_office","name":"Head Post Office, Sundernagar"}},
{"type":"Feature","geometry":{"type":"Point","coordinates":[76.9010862,31.5344517]},"properties":{"amenity":"post_office","name":"Sub Post Office, Purana Sundernagar"}},
{"type":"Feature","geometry":{"type":"Point","coordinates":[76.9485442,8.5346737]},"properties":{"amenity":"post_office","name":"Post Office, Muttada"}},
{"type":"Feature","geometry":{"type":"Point","coordinates":[72.8284002,18.9450359]},"properties":{"amenity":"post_office","name":"Kalbadevi Post Office 400002","operator":"India Post","operator:wikidata":"Q3519720"}},
{"type":"Feature","geometry":{"type":"Point","coordinates":[75.4314337,31.2128001]},"properties":{"amenity":"post_office","name":"Uggi"}},
{"type":"Feature","geometry":{"type":"Point","coordinates":[77.0889655,31.2474102]},"properties":{"amenity":"post_office","name":"Tattapani Post Office"}},
{"type":"Feature","geometry":{"type":"Point","coordinates":[77.5537972,13.0326654]},"properties":{"amenity":"post_office","name":"Shree Chowdeshwari Post Office","wheelchair":"no"}},
{"type":"Feature","geometry":{"type":"Point","coordinates":[73.7847837,19.9979128]},"properties":{"amenity":"post_office","ele":"593.74","postal_code":"422001"}},
{"type":"Feature","geometry":{"type":"Point","coordinates":[72.8349898,18.9346708]},"properties":{"amenity":"post_office","name":"Bazaar Gate Post Office","postal_code":"400001"}},
{"type":"Feature","geometry":{"type":"Point","coordinates":[79.1408707,10.7786454]},"properties":{"amenity":"post_office","name":"Head Post Office, Thanjavur","operator":"India Post","operator:wikidata":"Q3519720","operator:wikipedia":"en:India Post"}},
{"type":"Feature","geometry":{"type":"Point","coordinates":[73.8756503,18.5229317]},"properties":{"amenity":"post_office","name":"Pune General Post Office","wikidata":"Q64213111","wikimedia_commons":"File:Full view of General Post Office, Pune.jpg"}},
{"type":"Feature","geometry":{"type":"Point","coordinates":[76.3686101,32.2004399]},"properties":{"amenity":"post_office","name":"Rakkar Post Office","operator":"India Post","postal_code":"176057"}},
{"type":"Feature","geometry":{"type":"Point","coordinates":[80.1504446,17.2561468]},"properties":{"amenity":"post_office","name":"NSP Camp","operator":"India Post"}},
{"type":"Feature","geometry":{"type":"Point","coordinates":[77.1031772,28.4226886]},"properties":{"amenity":"post_office","name":"Sec-56 Post Office","operator":"India Post","operator:wikidata":"Q3519720"}},
{"type":"Feature","geometry":{"type":"Point","coordinates":[72.827395,18.9541461]},"properties":{"amenity":"post_office","name":"Madhavbaug PO","postal_code":"400004"}},
{"type":"Feature","geometry":{"type":"Point","coordinates":[76.2587972,32.2055545]},"properties":{"amenity":"post_office","name":"Sub Post Office, Chadhi"}},
{"type":"Feature","geometry":{"type":"Point","coordinates":[77.5851753,11.2784734]},"properties":{"amenity":"post_office","name":"Perundurai Post Office"}},
{"type":"Feature","geometry":{"type":"Point","coordinates":[80.1451895,17.2378339]},"properties":{"amenity":"post_office","name":"Church Rd"}},
{"type":"Feature","geometry":{"type":"Point","coordinates":[77.0223486,8.5384811]},"properties":{"addr:city":"Thiruvananthapuram","addr:postcode":"695573","addr:street":"Vattiyoorkav Puliyarakonam Road","amenity":"post_office","description":"Branch office under Peyad sub post office.","name":"Puliyarakonam Post Office","name:ml":"പുളിയറക്കോണം പോസ്റ്റോഫീസ്","opening_hours":"Mo-Sa 10:00-14:00","phone":"+91-471 228 9040","post_office:type":"Branch office","website":"indiapost.gov.in","wikipedia:en":"India Post"}},
{"type":"Feature","geometry":{"type":"Point","coordinates":[76.6097866,32.4561635]},"properties":{"amenity":"post_office","name":"Sub Post Office Hadsar"}},
{"type":"Feature","geometry":{"type":"Point","coordinates":[77.1883245,32.2437986]},"properties":{"addr:postcode":"175131","amenity":"post_office","name":"Post Office Manali"}},
{"type":"Feature","geometry":{"type":"Point","coordinates":[76.2823323,9.9719327]},"properties":{"amenity":"post_office","name":"Ernakulam Head Post Office"}},
{"type":"Feature","geometry":{"type":"Point","coordinates":[76.9750386,11.0052257]},"properties":{"amenity":"post_office"}},
{"type":"Feature","geometry":{"type":"Point","coordinates":[76.6628555,32.7262523]},"properties":{"addr:city":"Udaipur","addr:city:ks":"ادے پور","addr:city:ur":"ادے پور","amenity":"post_office","name":"Sub Post Office Udaipur","name:ks":"سب پوسٹ آفس ادے پور","name:ur":"سب پوسٹ آفس ادے پور","operator":"India Post","operator:ks":"بھارتی ڈاک","operator:ur":"بھارتی ڈاک","operator:wikidata":"Q3519720","operator:wikipedia":"en:India Post","operator:wikipedia:ur":"بھارتی ڈاک"}},
{"type":"Feature","geometry":{"type":"Point","coordinates":[76.8654208,32.6351918]},"properties":{"amenity":"post_office","name":"Sub Post Office Jahlmah","operator":"India Post"}},
{"type":"Feature","geometry":{"type":"Point","coordinates":[76.9376476,32.6024129]},"properties":{"amenity":"post_office","name":"Post Office Lote","operator":"India Post"}},
{"type":"Feature","geometry":{"type":"Point","coordinates":[76.5937105,32.010067]},"properties":{"amenity":"post_office","name":"Post Office Bhuana","operator":"India Post"}},
{"type":"Feature","geometry":{"type":"Point","coordinates":[72.8322731,18.9568053]},"properties":{"amenity":"post_office","name":"Mandvi Post Office","postal_code":"400003","source":"GPS"}},
{"type":"Feature","geometry":{"type":"Point","coordinates":[72.8307064,18.9614163]},"properties":{"amenity":"post_office","name":"Null Bazaar Post Office","postal_code":"400003","source":"GPS"}},
{"type":"Feature","geometry":{"type":"Point","coordinates":[80.1438605,17.2428293]},"properties":{"amenity":"post_office","name":"Sub Post Office"}},
{"type":"Feature","geometry":{"type":"Point","coordinates":[73.7663802,18.5699952]},"properties":{"amenity":"post_office","name":"Baner Post Office","opening_hours":"Mo-Su 09:00-21:00"}},
{"type":"Feature","geometry":{"type":"Point","coordinates":[75.8640522,30.8657718]},"properties":{"amenity":"post_office","name":"Shimlapuri Post Office"}},
{"type":"Feature","geometry":{"type":"Point","coordinates":[75.112741,12.8060038]},"properties":{"amenity":"post_office","name":"Ananthady post office","name:kn":"ಅನಂತಾಡಿ ಅಂಚೆ ಕಛೇರಿ"}},
{"type":"Feature","geometry":{"type":"Point","coordinates":[75.8838654,30.8695318]},"properties":{"amenity":"post_office","name":"Daba Road, Ludhiana (141014)"}},
{"type":"Feature","geometry":{"type":"Point","coordinates":[77.2809165,28.5357637]},"properties":{"amenity":"post_office"}},
{"type":"Feature","geometry":{"type":"Point","coordinates":[77.6678755,12.9584115]},"properties":{"amenity":"post_office","name":"HAL postoffice"}},
{"type":"Feature","geometry":{"type":"Point","coordinates":[77.5454937,12.9407969]},"properties":{"amenity":"post_office","name":"Girinagara Post Office","name:kn":"ಗಿರಿನಗರ ಅಂಚೆ ಕಛೇರಿ"}},
{"type":"Feature","geometry":{"type":"Point","coordinates":[77.5417724,12.9321449]},"properties":{"amenity":"post_office"}},
{"type":"Feature","geometry":{"type":"Point","coordinates":[76.634753,9.7348796]},"properties":{"addr:postcode":"686635","amenity":"post_office","name":"Palackattumala Post Office","name:ml":"പാലക്കാട്ടുമല പോസ്റ്റ് ഓഫീസ്"}},
{"type":"Feature","geometry":{"type":"Point","coordinates":[76.6113077,9.7427287]},"properties":{"addr:city":"Marangattupilly","addr:postcode":"686635","amenity":"post_office","level":"1","name":"Post Office, Marangattupilly","name:ml":"മരങ്ങാട്ടുപള്ളി പോസ്റ്റ് ഓഫീസ്","phone":"+914822251030"}},
{"type":"Feature","geometry":{"type":"Point","coordinates":[75.976372,32.5364314]},"properties":{"amenity":"post_office","name":"Indian post Office","pin_code":"176304"}},
{"type":"Feature","geometry":{"type":"Point","coordinates":[95.3201401,27.3551951]},"properties":{"amenity":"post_office","name":"Duliajan Post Office","operator":"Indian Post"}},
{"type":"Feature","geometry":{"type":"Point","coordinates":[77.6988783,12.9950857]},"properties":{"addr:city":"Mahadevapura, Bangalore","addr:postcode":"560048","addr:street":"Whitefield Road","amenity":"post_office","name":"Mahadevappura Post Office"}},
{"type":"Feature","geometry":{"type":"Point","coordinates":[76.3403952,9.499963]},"properties":{"addr:city":"Alappuzha","amenity":"post_office"}},
{"type":"Feature","geometry":{"type":"Point","coordinates":[76.3405934,9.4958679]},"properties":{"amenity":"post_office"}},
{"type":"Feature","geometry":{"type":"Point","coordinates":[80.1326859,12.9737394]},"properties":{"amenity":"post_office","name":"Pammal Post Office"}},
{"type":"Feature","geometry":{"type":"Point","coordinates":[77.1539241,31.1034772]},"properties":{"amenity":"post_office","name":"Ambedkar Chowk Post Office","postal_code":"171004","source":"GPS"}},
{"type":"Feature","geometry":{"type":"Point","coordinates":[77.1644049,31.105469]},"properties":{"amenity":"post_office","name":"A.G. Sub Post Office","postal_code":"171003","wpt_symbol":"Flag, Red"}},
{"type":"Feature","geometry":{"type":"Point","coordinates":[77.1718377,31.1055101]},"properties":{"amenity":"post_office","name":"Shimla GPO","postal_code":"171001"}},
{"type":"Feature","geometry":{"type":"Point","coordinates":[77.1777072,31.1021016]},"properties":{"amenity":"post_office","name":"Combermere Sub Post Office","postal_code":"171001"}},
{"type":"Feature","geometry":{"type":"Point","coordinates":[77.1785859,31.089993]},"properties":{"amenity":"post_office","name":"Shimla East Post Office","postal_code":"171002","wpt_symbol":"Flag, Red"}},
{"type":"Feature","geometry":{"type":"Point","coordinates":[95.3566504,27.4875248]},"properties":{"amenity":"post_office","name":"Head Post Office","name:ur":"ہیڈ پوسٹ آفس"}},
{"type":"Feature","geometry":{"type":"Point","coordinates":[72.8373941,18.9502818]},"properties":{"amenity":"post_office","name":"Masjid Post Office","postal_code":"400003","wpt_symbol":"Post Office"}},
{"type":"Feature","geometry":{"type":"Point","coordinates":[77.7080008,12.9832283]},"properties":{"addr:street":"ITPL Main Road","amenity":"post_office","brand":"Blue Dart Express","brand:short":"Blue Dart","brand:wikidata":"Q54621493","landuse":"commercial","name":"Blue Dart","operator":"Blue Dart Express","operator:short":"Blue Dart","operator:wikidata":"Q54621493","post_office:type":"post_annex"}},
{"type":"Feature","geometry":{"type":"Point","coordinates":[80.7971478,17.9091777]},"properties":{"addr:postcode":"507125","amenity":"post_office"}},
{"type":"Feature","geometry":{"type":"Point","coordinates":[77.5740606,12.9447608]},"properties":{"addr:city":"Bangalore","addr:street":"Krishna Rajendra Road","amenity":"post_office","name":"Basawanagudi Post Office","name:kn":"ಬಸವನಗುಡಿ ಅಂಚೆ ಕಛೇರಿ"}},
{"type":"Feature","geometry":{"type":"Point","coordinates":[77.5928253,13.006983]},"properties":{"addr:postcode":"560005","addr:street":"Jayamahal Road","amenity":"post_office","name":"J C Nagar Post Office"}},
{"type":"Feature","geometry":{"type":"Point","coordinates":[79.1542834,12.9698227]},"properties":{"addr:city":"Vellore","addr:postcode":"632014","amenity":"post_office","name":"Post Office","opening_hours":"Mo-Sa 08:00-18:00"}},
{"type":"Feature","geometry":{"type":"Point","coordinates":[74.991161,12.5023072]},"properties":{"amenity":"post_office","name":"Kasaragod head Post office","operator":"India Post","operator:wikidata":"Q3519720"}},
{"type":"Feature","geometry":{"type":"Point","coordinates":[78.6409993,25.3509914]},"properties":{"amenity":"post_office","operator":"Indian Post"}},
{"type":"Feature","geometry":{"type":"Point","coordinates":[77.7395119,23.4833494]},"properties":{"amenity":"post_office","operator":"Indian Post"}},
{"type":"Feature","geometry":{"type":"Point","coordinates":[78.4727373,17.4660997]},"properties":{"amenity":"post_office","name":"Bowenpally Post office","operator":"Indian postal service","ref":"Bowenpally"}},
{"type":"Feature","geometry":{"type":"Point","coordinates":[77.4946424,10.2362369]},"properties":{"amenity":"post_office","name":"Kodaikanal S.O","operator":"India Post","postal_code":"624101"}},
{"type":"Feature","geometry":{"type":"Point","coordinates":[72.8512892,19.1630365]},"properties":{"amenity":"post_office","name":"Indian Post Office"}},
{"type":"Feature","geometry":{"type":"Point","coordinates":[72.8489498,19.1663635]},"properties":{"amenity":"post_office","name":"Post Office"}},
{"type":"Feature","geometry":{"type":"Point","coordinates":[80.0966933,13.111977]},"properties":{"amenity":"post_office"}},
{"type":"Feature","geometry":{"type":"Point","coordinates":[76.3750411,9.9401207]},"properties":{"amenity":"post_office","name":"Thiruvankulam Post Office","operator":"Thiruvankulam","ref":"682305"}},
{"type":"Feature","geometry":{"type":"Point","coordinates":[77.6301355,10.2814709]},"properties":{"amenity":"post_office","name":"Post Office"}},
{"type":"Feature","geometry":{"type":"Point","coordinates":[78.3195306,17.3934424]},"properties":{"amenity":"post_office","ref":"500075","source":"bing"}},
{"type":"Feature","geometry":{"type":"Point","coordinates":[72.8122892,21.185518]},"properties":{"amenity":"post_office"}},
{"type":"Feature","geometry":{"type":"Point","coordinates":[76.1532762,15.3519628]},"properties":{"amenity":"post_office","ref":"BSNL Telephone Office"}},
{"type":"Feature","geometry":{"type":"Point","coordinates":[80.1927801,12.9912919]},"properties":{"amenity":"post_office","ref":"Thillai Ganga Nagar Post Office"}},
{"type":"Feature","geometry":{"type":"Point","coordinates":[74.027373,30.4071345]},"properties":{"amenity":"post_office","name":"Main"}},
{"type":"Feature","geometry":{"type":"Point","coordinates":[78.4507024,13.6332585]},"properties":{"addr:postcode":"517352","amenity":"post_office","name":"Rishi Valley","operator":"India Post"}},
{"type":"Feature","geometry":{"type":"Point","coordinates":[86.1699669,22.8031649]},"properties":{"amenity":"post_office","name":"Kadma Post Office"}},
{"type":"Feature","geometry":{"type":"Point","coordinates":[78.9409102,22.0520009]},"properties":{"amenity":"post_office","ref":"Main Post Office"}},
{"type":"Feature","geometry":{"type":"Point","coordinates":[77.5627893,13.0091036]},"properties":{"amenity":"post_office","ref":"Malleshwaram West"}},
{"type":"Feature","geometry":{"type":"Point","coordinates":[77.5706105,13.0001186]},"properties":{"amenity":"post_office","name":"Malleshwaram Post Office","operator":"India Post","operator:wikidata":"Q3519720","ref":"Malleshwaram Post Office"}},
{"type":"Feature","geometry":{"type":"Point","coordinates":[88.3489103,22.6556247]},"properties":{"amenity":"post_office","operator":"India Post","operator:wikidata":"Q3519720","source":"Local Knowledge"}},
{"type":"Feature","geometry":{"type":"Point","coordinates":[78.5146713,17.4783861]},"properties":{"addr:street":"Lal Bazar","amenity":"post_office","name":"Lal Bazar Post Office"}},
{"type":"Feature","geometry":{"type":"Point","coordinates":[83.890411,26.7372424]},"properties":{"amenity":"post_office"}},
{"type":"Feature","geometry":{"type":"Point","coordinates":[74.2582687,30.6040577]},"properties":{"amenity":"post_office"}},
{"type":"Feature","geometry":{"type":"Point","coordinates":[77.718387,12.966045]},"properties":{"addr:postcode":"560037","amenity":"post_office"}},
{"type":"Feature","geometry":{"type":"Point","coordinates":[79.5481892,17.9950444]},"properties":{"amenity":"post_office","operator":"Central Government","ref":"Subedari Post Office"}},
{"type":"Feature","geometry":{"type":"Point","coordinates":[79.0213757,28.7810371]},"properties":{"amenity":"post_office","name:ur":"رام پور پوسٹ آفس","operator":"Government of India","operator:ur":"حکومت ہند","ref":"Rampur Post Office"}},
{"type":"Feature","geometry":{"type":"Point","coordinates":[74.6142912,30.9303997]},"properties":{"addr:city":"ferozepur","addr:postcode":"152001","amenity":"post_office","name":"Head Post Office Ferozpur","operator":"India Post"}},
{"type":"Feature","geometry":{"type":"Point","coordinates":[77.2543413,8.9757788]},"properties":{"amenity":"post_office","name":"Sengottai Post Office","ref":"sengottai post office"}},
{"type":"Feature","geometry":{"type":"Point","coordinates":[72.8404719,19.2320101]},"properties":{"amenity":"post_office","name":"Borivli HO Post Office","operator":"IndiaPost"}},
{"type":"Feature","geometry":{"type":"Point","coordinates":[80.6184056,17.5435262]},"properties":{"amenity":"post_office","name":"post office","name:en":"post office"}},
{"type":"Feature","geometry":{"type":"Point","coordinates":[77.6074967,13.0395856]},"properties":{"amenity":"post_office","name":"Kanakanagar Post Office"}},
{"type":"Feature","geometry":{"type":"Point","coordinates":[78.4626283,17.4562165]},"properties":{"amenity":"post_office","name":"Old Airport Post Office"}},
{"type":"Feature","geometry":{"type":"Point","coordinates":[77.0813715,28.4670246]},"properties":{"amenity":"post_office"}},
{"type":"Feature","geometry":{"type":"Point","coordinates":[76.7803924,9.9193023]},"properties":{"amenity":"post_office","name":"Post Office, Karimanoor","name:ml":"കരിമണ്ണൂർ","wikidata":"Q6370765","wikipedia":"en:Karimannoor"}},
{"type":"Feature","geometry":{"type":"Point","coordinates":[75.7559576,30.5242993]},"properties":{"amenity":"post_office","operator":"India Post"}},
{"type":"Feature","geometry":{"type":"Point","coordinates":[75.7763535,11.270593]},"properties":{"amenity":"post_office","name":"Post Office, Nadakkave","opening_hours":"Mo-Sa 09:00-17:30"}},
{"type":"Feature","geometry":{"type":"Point","coordinates":[77.574762,13.0384278]},"properties":{"amenity":"post_office","name":"RMV 2nd Stage Post Office","opening_hours":"Mo-Fr 09:00-14:00; Sa 09:00-12:00"}},
{"type":"Feature","geometry":{"type":"Point","coordinates":[72.914484,19.0535686]},"properties":{"amenity":"post_office"}},
{"type":"Feature","geometry":{"type":"Point","coordinates":[77.7481843,12.9684352]},"properties":{"amenity":"post_office","name":"Whitefield Post Office","operator":"India Post","operator:wikidata":"Q3519720","ref":"560066"}},
{"type":"Feature","geometry":{"type":"Point","coordinates":[78.5362799,17.450349]},"properties":{"amenity":"post_office","name":"Malkajgiri Post Office","ref":"26-3/124"}},
{"type":"Feature","geometry":{"type":"Point","coordinates":[78.0553025,30.4689503]},"properties":{"amenity":"post_office","name":"Post Office"}},
{"type":"Feature","geometry":{"type":"Point","coordinates":[73.094108,19.2153256]},"properties":{"amenity":"post_office","name":"Tilak Nagar Post office"}},
{"type":"Feature","geometry":{"type":"Point","coordinates":[77.499477,12.9248641]},"properties":{"amenity":"post_office","name":"R V Vidyanikethan Post"}},
{"type":"Feature","geometry":{"type":"Point","coordinates":[77.5790414,13.0019182]},"properties":{"amenity":"post_office","name":"Vyali Kaval Post Office"}},
{"type":"Feature","geometry":{"type":"Point","coordinates":[77.5450254,13.069411]},"properties":{"amenity":"post_office","atm":"yes","name":"Post Office","name:kn":"ಅಂಚೆ ಕಛೇರಿ","wheelchair":"no","wikidata":"Q35054","wikipedia":"en:Post office"}},
{"type":"Feature","geometry":{"type":"Point","coordinates":[77.5138394,12.9527146]},"properties":{"amenity":"post_office","name":"Post Office","name:kn":"ಅಂಚೆ ಕಛೇರಿ"}},
{"type":"Feature","geometry":{"type":"Point","coordinates":[77.5577739,13.0757912]},"properties":{"amenity":"post_office","name":"Vidyaranyapura","name:kn":"ವಿದ್ಯಾರಣ್ಯಪುರ"}},
{"type":"Feature","geometry":{"type":"Point","coordinates":[74.7323179,13.3475423]},"properties":{"amenity":"post_office","name":"Adi Udupi Post office","name:kn":"ಆದಿಉಡುಪಿ ಅಂಚೆ ಕಛೇರಿ"}},
{"type":"Feature","geometry":{"type":"Point","coordinates":[79.1262168,10.7739066]},"properties":{"amenity":"post_office"}},
{"type":"Feature","geometry":{"type":"Point","coordinates":[77.5441625,12.8988689]},"properties":{"amenity":"post_office","name":"Uttarahalli Post Office","name:kn":"ಉತ್ತರಹಳ್ಳಿ ಆಂಚೆ ಕಛೇರಿ"}},
{"type":"Feature","geometry":{"type":"Point","coordinates":[77.5926135,12.9193402]},"properties":{"addr:postcode":"560041","amenity":"post_office","name":"Post Office, Jayanagar 9th Block"}},
{"type":"Feature","geometry":{"type":"Point","coordinates":[75.6364186,15.4325691]},"properties":{"amenity":"post_office","name":"Head Post Office","name:kn":"ಮುಖ್ಯ ಅಂಚೆ ಕಛೇರಿ"}},
{"type":"Feature","geometry":{"type":"Point","coordinates":[75.6999283,16.1813839]},"properties":{"amenity":"post_office","name":"Post office","name:kn":"ಅಂಚೆ ಕಛೇರಿ","operator":"government","source":"survey"}},
{"type":"Feature","geometry":{"type":"Point","coordinates":[87.2791398,22.338062999999999]},"properties":{"amenity":"post_office","name":"Nimpura Post Office"}},
{"type":"Feature","geometry":{"type":"Point","coordinates":[87.3260538,22.338973]},"properties":{"amenity":"post_office","name":"Kharagpur Post Ofice"}},
{"type":"Feature","geometry":{"type":"Point","coordinates":[76.9966347,10.9963455]},"properties":{"amenity":"post_office","name":"Post office","ref":"Ramanathapuram"}},
{"type":"Feature","geometry":{"type":"Point","coordinates":[76.2098679,15.0513295]},"properties":{"amenity":"post_office","name":"Post office","name:kn":"ಅಂಚೆ ಕಛೇರಿ"}},
{"type":"Feature","geometry":{"type":"Point","coordinates":[76.9830066,10.9983509]},"properties":{"amenity":"post_office","name":"Redfields Post Office"}},
{"type":"Feature","geometry":{"type":"Point","coordinates":[77.334753,13.1464411]},"properties":{"amenity":"post_office","name":"Teppada Begur Post Office","name:kn":"ತೆಪ್ಪದ ಬೇಗೂರು ಅಂಚೆ ಕಛೇರಿ"}},
{"type":"Feature","geometry":{"type":"Point","coordinates":[76.9401267,11.2928012]},"properties":{"amenity":"post_office","name":"Mettupalayam Head Post Office"}},
{"type":"Feature","geometry":{"type":"Point","coordinates":[77.3929948,13.0962713]},"properties":{"amenity":"post_office","name":"Nelamangala Post Office","name:kn":"ನೆಲಮಂಗಲ ಅಂಚೆ ಕಛೇರಿ"}},
{"type":"Feature","geometry":{"type":"Point","coordinates":[76.3437454,10.0210828]},"properties":{"amenity":"post_office","name":"Post Office Kakkanad"}},
{"type":"Feature","geometry":{"type":"Point","coordinates":[80.2235605,13.0640445]},"properties":{"addr:city":"Chennai","addr:housenumber":"31, 106","addr:postcode":"600094","addr:street":"Anna High Road","amenity":"post_office","name":"Choolaimedu Post Office","opening_hours":"Mo-Su 10:00-18:00"}},
{"type":"Feature","geometry":{"type":"Point","coordinates":[76.3358445,9.4969398]},"properties":{"amenity":"post_office","name":"HeadPost Office"}},
{"type":"Feature","geometry":{"type":"Point","coordinates":[76.3436677,9.4795724]},"properties":{"amenity":"post_office","name":"Pazhaveedu Post Office","opening_hours":"Mo-Sa 10:00-17:00"}},
{"type":"Feature","geometry":{"type":"Point","coordinates":[76.9680799,10.9950865]},"properties":{"amenity":"post_office","ref":"Railway mail service"}},
{"type":"Feature","geometry":{"type":"Point","coordinates":[75.8071568,30.1272614]},"properties":{"amenity":"post_office","name":"Post Office"}},
{"type":"Feature","geometry":{"type":"Point","coordinates":[77.6034656,12.9730431]},"properties":{"amenity":"post_office","name":"India Post Museum Road","operator":"India Post","operator:wikidata":"Q3519720"}},
{"type":"Feature","geometry":{"type":"Point","coordinates":[76.3857929,30.3345737]},"properties":{"addr:city":"Patiala","addr:postcode":"147001","addr:street":"NH7","amenity":"post_office","name":"Head Post Office, Patiala","operator":"Government"}},
{"type":"Feature","geometry":{"type":"Point","coordinates":[77.7177093,12.9952882]},"properties":{"amenity":"post_office","name":"Hoodi Post Office (560 048)","name:kn":"ಹೂಡಿ ಅಂಚೆ ಕಛೇರಿ","operator":"Indian Post"}},
{"type":"Feature","geometry":{"type":"Point","coordinates":[77.2682749,28.5618567]},"properties":{"amenity":"post_office","name":"Post Office"}},
{"type":"Feature","geometry":{"type":"Point","coordinates":[73.8418668,18.5151122]},"properties":{"amenity":"post_office","name":"Deccan Gymkhana Post Office","opening_hours":"Mo-Su 10:00-18:00","operator":"India Post","operator:wikidata":"Q3519720","phone":"02024264556","source":"local"}},
{"type":"Feature","geometry":{"type":"Point","coordinates":[83.0092479,25.30702]},"properties":{"amenity":"post_office"}},
{"type":"Feature","geometry":{"type":"Point","coordinates":[72.9763572,19.1872677]},"properties":{"amenity":"post_office","name":"Thane Railway Station Post office","operator":"India Post","operator:wikidata":"Q3519720"}},
{"type":"Feature","geometry":{"type":"Point","coordinates":[69.6694943,23.2537884]},"properties":{"amenity":"post_office","name":"Durbargarh Post Office","postal_code":"370001"}},
{"type":"Feature","geometry":{"type":"Point","coordinates":[73.0645929,19.0324159]},"properties":{"addr:city":"Kharghar","addr:postcode":"410210","amenity":"post_office","name":"Kharghar Post Office","operator":"Indian Government"}},
{"type":"Feature","geometry":{"type":"Point","coordinates":[76.0875576,10.8814733]},"properties":{"amenity":"post_office"}},
{"type":"Feature","geometry":{"type":"Point","coordinates":[76.0978394,10.8648608]},"properties":{"amenity":"post_office"}},
{"type":"Feature","geometry":{"type":"Point","coordinates":[82.9809998,25.3043783]},"properties":{"amenity":"post_office"}},
{"type":"Feature","geometry":{"type":"Point","coordinates":[80.2268645,13.0384808]},"properties":{"amenity":"post_office"}},
{"type":"Feature","geometry":{"type":"Point","coordinates":[73.8001049,17.924715]},"properties":{"amenity":"post_office","name":"Panchgani"}},
{"type":"Feature","geometry":{"type":"Point","coordinates":[77.5993673,12.937389]},"properties":{"addr:postcode":"560029","amenity":"post_office","name":"Dharmaram College Sub Post Office"}},
{"type":"Feature","geometry":{"type":"Point","coordinates":[77.1149371,8.2809508]},"properties":{"amenity":"post_office","name":"Vallavilai Post Office","operator":"India Post","ref":"629160"}},
{"type":"Feature","geometry":{"type":"Point","coordinates":[76.6410388,12.292846]},"properties":{"amenity":"post_office","name":"Krishnamurthypuram Post Office","name:kn":"ಅಂಚೆ ಕಛೇರಿ","ref":"570001"}},
{"type":"Feature","geometry":{"type":"Point","coordinates":[76.6567376,12.3138549]},"properties":{"amenity":"post_office","name":"Mysore Post Office","name:kn":"ಮೈಸೂರು ಕೇಂದ್ರಿಯ ಅಂಚೆ ಕಛೇರಿ"}},
{"type":"Feature","geometry":{"type":"Point","coordinates":[80.2365453,13.0105366]},"properties":{"addr:city":"Chennai","addr:postcode":"600025","addr:street":"Sardar Patel Road","amenity":"post_office","designation":"Post Office","name":"College of Engineering, Guindy","operator":"India Post","operator:wikidata":"Q3519720","ref":"600025"}},
{"type":"Feature","geometry":{"type":"Point","coordinates":[76.5564214,12.0967263]},"properties":{"amenity":"post_office"}},
{"type":"Feature","geometry":{"type":"Point","coordinates":[72.8982135,19.0567078]},"properties":{"addr:city":"Mumbai","addr:postcode":"400071","addr:street":"D K Sandu Marg","amenity":"post_office","collection_times":"12:00","name":"Chembur Head Post Office","operator":"IndiaPost"}},
{"type":"Feature","geometry":{"type":"Point","coordinates":[73.7669568,15.5435707]},"properties":{"amenity":"post_office","name":"Calangute Post Office"}},
{"type":"Feature","geometry":{"type":"Point","coordinates":[75.4875259,11.7496856]},"properties":{"amenity":"post_office","name":"Head post office"}},
{"type":"Feature","geometry":{"type":"Point","coordinates":[78.77648,10.16111]},"properties":{"addr:postcode":"630102","amenity":"post_office","name":"Chettinad Post Office","name:ta":"செட்டிநாடு தபால் நிலையம்"}},
{"type":"Feature","geometry":{"type":"Point","coordinates":[76.9570487,8.4408827]},"properties":{"amenity":"post_office"}},
{"type":"Feature","geometry":{"type":"Point","coordinates":[74.8357956,12.9026571]},"properties":{"amenity":"post_office","name":"Post Office Kottara","name:kn":"ಕೋತ್ತರ ಅಂಚೆ ಕಛೇರಿ"}},
{"type":"Feature","geometry":{"type":"Point","coordinates":[75.8442534,30.245589]},"properties":{"addr:city":"Sangrur","addr:postcode":"148001","addr:street":"Court Road","amenity":"post_office","name":"Head Post Office","operator":"Government"}},
{"type":"Feature","geometry":{"type":"Point","coordinates":[77.8626616,8.3355593]},"properties":{"amenity":"post_office","name":"India Post","operator":"India Post","operator:wikidata":"Q3519720","operator:wikipedia":"en:India Post"}},
{"type":"Feature","geometry":{"type":"Point","coordinates":[93.7412619,27.1302789]},"properties":{"amenity":"post_office","designation":"NERIST Post Office","name":"Post Office","ref":"791109","source":"NERIST"}},
{"type":"Feature","geometry":{"type":"Point","coordinates":[80.1682584,12.9209247]},"properties":{"amenity":"post_office","name":"India Post Office","operator":"India Post","operator:wikidata":"Q3519720"}},
{"type":"Feature","geometry":{"type":"Point","coordinates":[76.6123998,27.5613868]},"properties":{"amenity":"post_office","name":"Alwar Post Office","name:ur":"الور پوسٹ آفس"}},
{"type":"Feature","geometry":{"type":"Point","coordinates":[76.0640648,10.7802442]},"properties":{"amenity":"post_office","name":"vattamkulam","operator":"indian postal service","ref":"679578"}},
{"type":"Feature","geometry":{"type":"Point","coordinates":[79.5298414,29.2162598]},"properties":{"amenity":"post_office","name":"Post Office Haldwani","name:ur":"ہیڈ پوسٹ آفس ہلدوانی"}},
{"type":"Feature","geometry":{"type":"Point","coordinates":[79.523845,29.2158665]},"properties":{"amenity":"post_office","name":"Heeranagar Post Office","operator":"Postal Department Of India"}},
{"type":"Feature","geometry":{"type":"Point","coordinates":[75.3330166,12.9956073]},"properties":{"amenity":"post_office","name":"Ujire Post Office","name:kn":"ಉಜಿರೆ ಅಂಚೆ ಕಛೇರಿ","operator":"Indian Post"}},
{"type":"Feature","geometry":{"type":"Point","coordinates":[75.3658303,13.5340427]},"properties":{"amenity":"post_office","name":"Post office","name:kn":"ಅಂಚೆ ಕಛೇರಿ"}},
{"type":"Feature","geometry":{"type":"Point","coordinates":[76.3059866,9.907032]},"properties":{"addr:postcode":"682506","amenity":"post_office","name":"Kumbalam PO"}},
{"type":"Feature","geometry":{"type":"Point","coordinates":[75.7740632,13.3155873]},"properties":{"amenity":"post_office","name":"Head Post Office, Chikmagalur"}},
{"type":"Feature","geometry":{"type":"Point","coordinates":[95.0806705,27.4642445]},"properties":{"amenity":"post_office"}},
{"type":"Feature","geometry":{"type":"Point","coordinates":[72.8686446,22.6921411]},"properties":{"amenity":"post_office","name":"Desai Vago Post Office","operator":"IndiaPost","ref":"Desai Vago Post Office"}},
{"type":"Feature","geometry":{"type":"Point","coordinates":[75.1269595,15.3597318]},"properties":{"amenity":"post_office","name":"Vidyanagara Post Office","name:kn":"ವಿದ್ಯಾನಗರ ಅಂಚೆ ಕಛೇರಿ","ref":"580022"}},
{"type":"Feature","geometry":{"type":"Point","coordinates":[77.6459406,13.0180867]},"properties":{"amenity":"post_office","name":"Post Office","name:kn":"ಅಂಚೆ ಕಛೇರಿ"}},
{"type":"Feature","geometry":{"type":"Point","coordinates":[77.6500954,12.9598393]},"properties":{"addr:postcode":"560017","addr:street":"Old Airport Road","amenity":"post_office","name":"NAL Sub Office","name:kn":"ಎನ್ ಎ ಎಲ್ ಉಪ ಅಂಚೆ ಕಛೇರಿ","website":"https://www.indiapost.gov.in/"}},
{"type":"Feature","geometry":{"type":"Point","coordinates":[77.6500954,12.9598393]},"properties":{"addr:postcode":"560017","amenity":"post_office","name":"NAL Sub Office","name:kn":"ಎನ್ ಎ ಎಲ್ ಉಪ ಅಂಚೆ ಕಛೇರಿ","wheelchair":"limited"}},
{"type":"Feature","geometry":{"type":"Point","coordinates":[80.2217085,12.9826044]},"properties":{"amenity":"post_office","name":"Velachery Post Office","operator":"Ministry of IT& Telecommunication, Govt of India","ref":"600042"}},
{"type":"Feature","geometry":{"type":"Point","coordinates":[76.98443,28.6071611]},"properties":{"amenity":"post_office","name":"Najafgarh Post Office"}},
{"type":"Feature","geometry":{"type":"Point","coordinates":[88.3164808,22.4938618]},"properties":{"amenity":"post_office"}},
{"type":"Feature","geometry":{"type":"Point","coordinates":[77.5151084,10.4523257]},"properties":{"amenity":"post_office","check_date":"2024-07-28","name":"Palani Head Post Office","name:ta":"பழனி தலைமை அஞ்சலகம்","operator":"India Post","operator:wikidata":"Q3519720","source":"survey"}},
{"type":"Feature","geometry":{"type":"Point","coordinates":[75.1895879,12.0607089]},"properties":{"amenity":"post_office","name":"Ramanthali Post Office"}},
{"type":"Feature","geometry":{"type":"Point","coordinates":[75.2495259,13.6900697]},"properties":{"amenity":"post_office","name":"Tirthahalli Post Office","name:kn":"ತೀರ್ಥಹಳ್ಳಿ ಅಂಚೆ ಕಛೇರಿ"}},
{"type":"Feature","geometry":{"type":"Point","coordinates":[77.5720582,12.9535008]},"properties":{"amenity":"post_office","name":"PMK Road Post Office","name:kn":"ಅಂಚೆ ಕಛೇರಿ","operator":"India Post","operator:wikidata":"Q3519720","wheelchair":"no"}},
{"type":"Feature","geometry":{"type":"Point","coordinates":[77.5069787,13.0181558]},"properties":{"amenity":"post_office"}},
{"type":"Feature","geometry":{"type":"Point","coordinates":[74.8576653,32.6984859]},"properties":{"amenity":"post_office","name":"General Post Office"}},
{"type":"Feature","geometry":{"type":"Point","coordinates":[74.8468077,32.6950008]},"properties":{"amenity":"post_office","name":"Post Office - Satwari"}},
{"type":"Feature","geometry":{"type":"Point","coordinates":[76.8309546,30.3466049]},"properties":{"addr:city":"Ambala Cantt","addr:housenumber":"107","addr:postcode":"133001","addr:street":"The Mall Road (Mahatma Gandhi Marg)","amenity":"post_office","description":"Government Office","name":"Chief Post Master General","opening_hours":"Mo-Fr 09:30-17:30","operator":"India Post","operator:wikidata":"Q3519720"}},
{"type":"Feature","geometry":{"type":"Point","coordinates":[72.8254833,19.111007]},"properties":{"amenity":"post_office","name":"Juhu Post Office"}},
{"type":"Feature","geometry":{"type":"Point","coordinates":[76.9073555,28.570349]},"properties":{"amenity":"post_office"}},
{"type":"Feature","geometry":{"type":"Point","coordinates":[86.1849998,22.7991218]},"properties":{"amenity":"post_office","name":"Bistupur Post Office"}},
{"type":"Feature","geometry":{"type":"Point","coordinates":[76.0249863,10.5805668]},"properties":{"amenity":"post_office","name":"Chavakkad Post Office"}},
{"type":"Feature","geometry":{"type":"Point","coordinates":[77.3155981,28.5797469]},"properties":{"addr:street":"Sector 16 NOIDA","amenity":"post_office","name":"Post Office"}},
{"type":"Feature","geometry":{"type":"Point","coordinates":[76.7744999,30.7636387]},"properties":{"amenity":"post_office","operator":"India Post","operator:wikidata":"Q3519720"}},
{"type":"Feature","geometry":{"type":"Point","coordinates":[88.3653347,22.5313138]},"properties":{"amenity":"post_office","check_date":"2023-12-16","internet_access":"no","name":"Ballygunge Post Office","payment:cash":"yes","payment:mastercard":"yes","payment:visa":"yes","wheelchair":"no"}},
{"type":"Feature","geometry":{"type":"Point","coordinates":[88.325316,22.525618]},"properties":{"amenity":"post_office","name":"Mominpur Post Office"}},
{"type":"Feature","geometry":{"type":"Point","coordinates":[76.9333845,31.7090307]},"properties":{"amenity":"post_office"}},
{"type":"Feature","geometry":{"type":"Point","coordinates":[75.9188986,14.4680597]},"properties":{"addr:city":"Davanagere","addr:postcode":"577002","addr:street":"Railway Station","amenity":"post_office","name":"RMS Davangere Post Office","operator":"Indian Postal Department"}},
{"type":"Feature","geometry":{"type":"Point","coordinates":[78.7512517,29.0439204]},"properties":{"amenity":"post_office"}},
{"type":"Feature","geometry":{"type":"Point","coordinates":[77.5764372,12.9648252]},"properties":{"amenity":"post_office","designation":"560002","name":"KR Market Sub Post Office","operator":"Indias Postal Service"}},
{"type":"Feature","geometry":{"type":"Point","coordinates":[76.7982975,30.7403134]},"properties":{"amenity":"post_office","name":"India post","operator":"India Post","operator:wikidata":"Q3519720"}},
{"type":"Feature","geometry":{"type":"Point","coordinates":[76.3194949,31.8741545]},"properties":{"amenity":"post_office"}},
{"type":"Feature","geometry":{"type":"Point","coordinates":[72.9794957,19.1991761]},"properties":{"amenity":"post_office","name":"Thane Main Post Office","ref":"400601"}},
{"type":"Feature","geometry":{"type":"Point","coordinates":[88.3440954,22.5233079]},"properties":{"amenity":"post_office","name":"Kalighat Post Office"}},
{"type":"Feature","geometry":{"type":"Point","coordinates":[78.4379507,17.4297316]},"properties":{"amenity":"post_office","name":"Sri Nagar Colony Post Office"}},
{"type":"Feature","geometry":{"type":"Point","coordinates":[73.7266857,15.6625104]},"properties":{"amenity":"post_office","name":"Mandrem Post Office"}},
{"type":"Feature","geometry":{"type":"Point","coordinates":[80.1117836,13.1311334]},"properties":{"amenity":"post_office","name":"HVF Post Office"}},
{"type":"Feature","geometry":{"type":"Point","coordinates":[75.7402534,12.422315]},"properties":{"amenity":"post_office","name":"Post Office","name:kn":"ಅಂಚೆ ಕಛೇರಿ"}},
{"type":"Feature","geometry":{"type":"Point","coordinates":[72.8307352,19.1238609]},"properties":{"amenity":"post_office","name":"D.N.Nagar Post office","operator":"India Post","operator:wikidata":"Q3519720"}},
{"type":"Feature","geometry":{"type":"Point","coordinates":[76.2811879,9.9878515]},"properties":{"addr:city":"Ernakulam","addr:postcode":"682018","addr:street":"Providence Road","amenity":"post_office","name":"Ernakulam North Post Office","opening_hours":"Mo-Fr 09:00-17:00","wheelchair":"limited"}},
{"type":"Feature","geometry":{"type":"Point","coordinates":[76.6461694,10.7686793]},"properties":{"amenity":"post_office","name":"Nurani Port Office","ref":"678004"}},
{"type":"Feature","geometry":{"type":"Point","coordinates":[76.6426852,10.7645819]},"properties":{"amenity":"post_office","name":"Thondikulam Post office"}},
{"type":"Feature","geometry":{"type":"Point","coordinates":[74.6357671,26.4588761]},"properties":{"amenity":"post_office","name":"General Post Office"}},
{"type":"Feature","geometry":{"type":"Point","coordinates":[77.5806683,12.8773766]},"properties":{"amenity":"post_office","name":"JP Nagar 8th Phase 560076","operator":"India Post","source":"Bing, Local knowledge"}},
{"type":"Feature","geometry":{"type":"Point","coordinates":[78.0702388,32.2273146]},"properties":{"amenity":"post_office","name":"Post Office","name:en":"Post Office","name:hi":"डाक घर"}},
{"type":"Feature","geometry":{"type":"Point","coordinates":[85.5331223,25.3703087]},"properties":{"amenity":"post_office","name":"Harnaut Postoffice"}},
{"type":"Feature","geometry":{"type":"Point","coordinates":[85.4914918,25.3900467]},"properties":{"amenity":"post_office","name":"Barah Postoffice","source":"Bing"}},
{"type":"Feature","geometry":{"type":"Point","coordinates":[77.4222487,8.1553895]},"properties":{"amenity":"post_office","name":"Maravankudieruppu Post Office","operator":"Kottar"}},
{"type":"Feature","geometry":{"type":"Point","coordinates":[86.7264154,25.9080179]},"properties":{"amenity":"post_office","name":"post office mathahi"}},
{"type":"Feature","geometry":{"type":"Point","coordinates":[80.9596981,26.8735472]},"properties":{"amenity":"post_office","name":"Mahanagar Post Office"}},
{"type":"Feature","geometry":{"type":"Point","coordinates":[76.623274,10.7551728]},"properties":{"amenity":"post_office","name":"Thirunellai Post Office","operator":"Nurani Post Office","ref":"678004"}},
{"type":"Feature","geometry":{"type":"Point","coordinates":[80.2128428,13.0348132]},"properties":{"amenity":"post_office","name":"UPS Delivery Main Center","operator":"UPS Worldwide","ref":"Chennai 600083"}},
{"type":"Feature","geometry":{"type":"Point","coordinates":[87.245639,23.6502147]},"properties":{"amenity":"post_office","name":"Ukhra Post Office"}},
{"type":"Feature","geometry":{"type":"Point","coordinates":[86.7898064,25.9148654]},"properties":{"amenity":"post_office","name":"Head Post Office"}},
{"type":"Feature","geometry":{"type":"Point","coordinates":[72.9690756,19.2323966]},"properties":{"amenity":"post_office","name":"Apna Bazaar","operator":"India Post","ref":"400610"}},
{"type":"Feature","geometry":{"type":"Point","coordinates":[76.1678313,10.563163]},"properties":{"addr:city":"Amala Nagar","addr:postcode":"680555","addr:street":"Thrissur-Kunnamkullam  road","amenity":"post_office","name":"Amala Nagar post office"}},
{"type":"Feature","geometry":{"type":"Point","coordinates":[88.6049186,24.3662309]},"properties":{"addr:city":"Rajshahi","addr:housenumber":"26","addr:postcode":"6100","addr:street":"Sagarpara to Resompotti","amenity":"post_office","email":"maun.bm@gmail.com","name":"Ghoramara Post Office,Rajshahi","opening_hours":"24/7","operator":"Maun Sarwar"}},
{"type":"Feature","geometry":{"type":"Point","coordinates":[77.6917495,11.4417536]},"properties":{"amenity":"post_office","name:en":"Head Post Office"}},
{"type":"Feature","geometry":{"type":"Point","coordinates":[84.8042853,22.2274663]},"properties":{"amenity":"post_office","name":"Post Office","source":"Suryev"}},
{"type":"Feature","geometry":{"type":"Point","coordinates":[75.8148346,30.9023217]},"properties":{"amenity":"post_office","name:en":"Indian Post Office"}},
{"type":"Feature","geometry":{"type":"Point","coordinates":[75.8015061,30.8813351]},"properties":{"amenity":"post_office","designation":"Post Office","name":"Postal Store Depot ( PDS )"}},
{"type":"Feature","geometry":{"type":"Point","coordinates":[78.3586328,17.4390647]},"properties":{"amenity":"post_office","name":"Gachibowli Post Office"}},
{"type":"Feature","geometry":{"type":"Point","coordinates":[75.3900677,12.562565]},"properties":{"amenity":"post_office","name":"Post Office","name:kn":"ಅಂಚೆ ಕಛೇರಿ"}},
{"type":"Feature","geometry":{"type":"Point","coordinates":[79.3850135,10.3421626]},"properties":{"amenity":"post_office","name":"Adirampattinam Post Office","name:ta":"தபால் நிலையம்"}},
{"type":"Feature","geometry":{"type":"Point","coordinates":[76.6585369,10.767133]},"properties":{"amenity":"post_office","name":"Fort Post Office","survey:date":"2023-06-18"}},
{"type":"Feature","geometry":{"type":"Point","coordinates":[79.7626732,11.7567266]},"properties":{"amenity":"post_office","check_date":"2024-04-06","name":"Cuddalore Head Post Office"}},
{"type":"Feature","geometry":{"type":"Point","coordinates":[77.8976255,26.6927734]},"properties":{"amenity":"post_office","name":"a"}},
{"type":"Feature","geometry":{"type":"Point","coordinates":[73.7368395,18.5864538]},"properties":{"addr:postcode":"411057","alt_name:en":"Infotech park sub post office","alt_name:mr":"इन्फोटेक पार्क उप टपाल कार्यालय","amenity":"post_office","check_date":"2023-06-05","internet_access":"no","name":"Hinjawadi Post Office","name:en":"Hinjawadi Post Office","name:mr":"हिंजवडी टपाल कार्यालय","wheelchair":"no"}},
{"type":"Feature","geometry":{"type":"Point","coordinates":[76.6451938,10.7795435]},"properties":{"addr:city":"Palakkad","addr:postcode":"678012","addr:street":"Vadakkanthara Road","amenity":"post_office","name":"Vadakkanthara","operator":"Government of India"}},
{"type":"Feature","geometry":{"type":"Point","coordinates":[81.7777393,16.9918393]},"properties":{"amenity":"post_office","designation":"Post office","name":"Rajahmundry Head Post Office","operator":"Government postal","ref":"+(91)-(883)-2442338","source":"google"}},
{"type":"Feature","geometry":{"type":"Point","coordinates":[76.9977564,11.0008947]},"properties":{"amenity":"post_office","designation":"Krishnaswamy Nagar Post Office ","name":"Krishnaswamy NagarPost Office","operator":"India Post","operator:wikidata":"Q3519720","operator:wikipedia":"en:India Post","ref":"http://www.indiapost.gov.in/Pin/pinsearch.aspx?Pin_On=641045","source":"http://www.indiapost.gov.in/Pin/pinsearch.aspx?Pin_On=krishnaswamy nagar"}},
{"type":"Feature","geometry":{"type":"Point","coordinates":[76.630288,12.3236064]},"properties":{"amenity":"post_office","check_date":"2023-02-16","name":"Vontikoppal Post office","name:kn":"ಒಂಟಿಕೊಪ್ಪಲು ಅಂಚೆ ಕಛೇರಿ","operator":"India Post"}},
{"type":"Feature","geometry":{"type":"Point","coordinates":[84.5146855,26.8007702]},"properties":{"amenity":"post_office","name":"Head Post Office"}},
{"type":"Feature","geometry":{"type":"Point","coordinates":[78.0195921,9.1861311]},"properties":{"amenity":"post_office","name":"Branch Post Office","name:ta":"கிளை அஞ்சலகம்","operator":"India Post","operator:wikidata":"Q3519720"}},
{"type":"Feature","geometry":{"type":"Point","coordinates":[81.8358936,25.441564]},"properties":{"amenity":"post_office","name":"Allahabad City Post Office"}},
{"type":"Feature","geometry":{"type":"Point","coordinates":[76.9665142,8.536615]},"properties":{"amenity":"post_office","name":"Peroorkada Post Office","name:ml":"പേരൂർക്കട പോസ്റ്റ് ഓഫീസ്","operator":"India Post","ref":"695005"}},
{"type":"Feature","geometry":{"type":"Point","coordinates":[75.6133762,12.6660538]},"properties":{"amenity":"post_office","name":"Subrahmanya","name:kn":"ಸುಬ್ರಹ್ಮಣ್ಯ","operator":"India Post","ref":"574238"}},
{"type":"Feature","geometry":{"type":"Point","coordinates":[74.4070154,17.7071782]},"properties":{"amenity":"post_office","name":"Nidhal Post Office"}},
{"type":"Feature","geometry":{"type":"Point","coordinates":[77.546525,13.0106887]},"properties":{"amenity":"post_office","name":"Mahalakshmi Layout Post Office","operator":"India Post","operator:wikidata":"Q3519720"}},
{"type":"Feature","geometry":{"type":"Point","coordinates":[78.0212739,11.1532987]},"properties":{"amenity":"post_office","place":"Paramathi","postal_code":"637207"}},
{"type":"Feature","geometry":{"type":"Point","coordinates":[77.5878626,13.0626765]},"properties":{"amenity":"post_office","name":"Sahakaranagara Post Office","name:kn":"ಸಹಕಾರನಗರ ಅಂಚೆ ಕಛೇರಿ"}},
{"type":"Feature","geometry":{"type":"Point","coordinates":[77.5787703,13.0781043]},"properties":{"amenity":"post_office"}},
{"type":"Feature","geometry":{"type":"Point","coordinates":[76.3144127,10.0531656]},"properties":{"amenity":"post_office","name":"Rajagiri Post Office"}},
{"type":"Feature","geometry":{"type":"Point","coordinates":[77.5832149,12.9681161]},"properties":{"amenity":"post_office","name":"4th street","operator":"indiapost"}},
{"type":"Feature","geometry":{"type":"Point","coordinates":[81.8643957,25.4659454]},"properties":{"amenity":"post_office","name":"Indian Post"}},
{"type":"Feature","geometry":{"type":"Point","coordinates":[77.5575811,12.9187365]},"properties":{"amenity":"post_office","name":"Padmanabha Nagara Post Office"}},
{"type":"Feature","geometry":{"type":"Point","coordinates":[76.7025822,11.4024049]},"properties":{"amenity":"post_office","name":"643001"}},
{"type":"Feature","geometry":{"type":"Point","coordinates":[79.138031,10.7908912]},"properties":{"amenity":"post_office","name":"Post Office 613001"}},
{"type":"Feature","geometry":{"type":"Point","coordinates":[79.0560036,12.2215288]},"properties":{"amenity":"post_office","name":"Post Office 606603"}},
{"type":"Feature","geometry":{"type":"Point","coordinates":[80.1926363,12.6208896]},"properties":{"amenity":"post_office","name":"Post Office 603104"}},
{"type":"Feature","geometry":{"type":"Point","coordinates":[88.4156074,22.5910637]},"properties":{"amenity":"post_office","name":"Post Office","operator":"India Post","operator:wikidata":"Q3519720"}},
{"type":"Feature","geometry":{"type":"Point","coordinates":[76.6776115,9.354325]},"properties":{"amenity":"post_office","name":"Pullad Post Office"}},
{"type":"Feature","geometry":{"type":"Point","coordinates":[77.1810832,28.6464118]},"properties":{"amenity":"post_office"}},
{"type":"Feature","geometry":{"type":"Point","coordinates":[88.3711624,22.7580585]},"properties":{"amenity":"post_office","name":"Barrackpore Railway Station","operator":"India Post","ref":"700123"}},
{"type":"Feature","geometry":{"type":"Point","coordinates":[78.1235299,9.9127229]},"properties":{"amenity":"post_office"}},
{"type":"Feature","geometry":{"type":"Point","coordinates":[72.8691431,19.1110984]},"properties":{"amenity":"post_office","name":"J. B. Nagar Post Office"}},
{"type":"Feature","geometry":{"type":"Point","coordinates":[77.81795579999999,9.6307767]},"properties":{"amenity":"post_office","name":"Post Office"}},
{"type":"Feature","geometry":{"type":"Point","coordinates":[77.0182392,31.79742]},"properties":{"amenity":"post_office","name":"Kataula Post Office","operator":"India Post"}},
{"type":"Feature","geometry":{"type":"Point","coordinates":[77.3630965,28.5652902]},"properties":{"amenity":"post_office","name":"Sector 41 Post Office","operator":"India Post","source":"knowledge, survey"}},
{"type":"Feature","geometry":{"type":"Point","coordinates":[88.2358947,27.3005783]},"properties":{"amenity":"post_office","name":"Post Office"}},
{"type":"Feature","geometry":{"type":"Point","coordinates":[88.2651856,27.0398495]},"properties":{"amenity":"post_office","name":"Post Office"}},
{"type":"Feature","geometry":{"type":"Point","coordinates":[80.2605401,13.0070984]},"properties":{"amenity":"post_office","name":"Adyar Post Office","ref":"600020"}},
{"type":"Feature","geometry":{"type":"Point","coordinates":[80.1677189,13.0222531]},"properties":{"amenity":"post_office","name":"Mugalivakkam Post Office - Speed Post Office","operator":"India Post","operator:wikidata":"Q3519720"}},
{"type":"Feature","geometry":{"type":"Point","coordinates":[72.8992388,19.0681539]},"properties":{"amenity":"post_office","name":"Tilak Nagar Post Office","name:ur":"تلک نگر پوسٹ آفس","operator":"India Post","operator:ur":"انڈیا پوسٹ","operator:wikidata":"Q3519720"}},
{"type":"Feature","geometry":{"type":"Point","coordinates":[74.8624091,13.6077048]},"properties":{"amenity":"post_office","name":"Shanakaranarayana Post Office","name:kn":"ಶಂಕರನಾರಾಯಣ ಅಂಚೆ ಕಛೇರಿ","ref":"576227"}},
{"type":"Feature","geometry":{"type":"Point","coordinates":[88.2367388,22.585913]},"properties":{"amenity":"post_office","name":"Andul Mouri"}},
{"type":"Feature","geometry":{"type":"Point","coordinates":[88.3648261,22.5671891]},"properties":{"amenity":"post_office","check_date":"2023-09-30","internet_access":"wlan","internet_access:fee":"no","name":"Sakharitala Post Office","operator":"India Post","operator:wikidata":"Q3519720"}},
{"type":"Feature","geometry":{"type":"Point","coordinates":[73.8449616,18.4991861]},"properties":{"amenity":"post_office","name":"Lokmanya Nagar Post Office"}},
{"type":"Feature","geometry":{"type":"Point","coordinates":[74.7355247,14.3136605]},"properties":{"amenity":"post_office"}},
{"type":"Feature","geometry":{"type":"Point","coordinates":[78.3879961,17.4323332]},"properties":{"amenity":"post_office"}},
{"type":"Feature","geometry":{"type":"Point","coordinates":[78.682796,10.8227941]},"properties":{"amenity":"post_office","name":"Thillainagar Post Office"}},
{"type":"Feature","geometry":{"type":"Point","coordinates":[80.2699517,13.0744672]},"properties":{"amenity":"post_office","name":"Chintadripet Post Office","operator":"India Post","operator:wikidata":"Q3519720","operator:wikipedia":"en:India Post","ref":"600002"}},
{"type":"Feature","geometry":{"type":"Point","coordinates":[76.7083391,9.9358043]},"properties":{"amenity":"post_office","name":"Kumaramangalam Post Office","postal_code":"685608"}},
{"type":"Feature","geometry":{"type":"Point","coordinates":[75.1517872,15.3620389]},"properties":{"amenity":"post_office","name":"Keshwapur Post Office","name:kn":"ಅಂಚೆ ಕಛೇರಿ ಕೇಶವಪುರ"}},
{"type":"Feature","geometry":{"type":"Point","coordinates":[72.9005147,19.1353745]},"properties":{"amenity":"post_office","collection_times":"09:30-16:30","name":"NITIE Post Office","operator":"India Post"}},
{"type":"Feature","geometry":{"type":"Point","coordinates":[76.960571,11.2419372]},"properties":{"amenity":"post_office","branch":"karamadai","branch:ta":"காரமடை","name":"karamadai post office","name:ta":"காரமடை தபால் நிலையம்","opening_hours":"Mo-Fr 08:30-20:00; PH,Sa,Su off","operator":"India Post","operator:ta":"இந்திய அஞ்சல்துறை"}},
{"type":"Feature","geometry":{"type":"Point","coordinates":[80.2550173,12.9832497]},"properties":{"amenity":"post_office","name":"Thiruvanmiyur Post Office"}},
{"type":"Feature","geometry":{"type":"Point","coordinates":[75.0061003,15.4518781]},"properties":{"amenity":"post_office","name":"Head Post Office, Dharwad","name:kn":"ಧಾರವಾಡ ಮುಖ್ಯ ಅಂಚೆ ಕಛೇರಿ"}},
{"type":"Feature","geometry":{"type":"Point","coordinates":[79.9802217,12.6938026]},"properties":{"amenity":"post_office"}},
{"type":"Feature","geometry":{"type":"Point","coordinates":[73.1975816,22.3036587]},"properties":{"addr:city":"Vadodara","addr:postcode":"390001","addr:street":"Surya Narayan Baug Road, Raopura","amenity":"post_office","name":"Vadodara Head Post Office"}},
{"type":"Feature","geometry":{"type":"Point","coordinates":[77.8266371,12.733463800000001]},"properties":{"amenity":"post_office","name":"Main Post Office","name:kn":"ಮುಖ್ಯ ಅಂಚೆ ಕಚೇರಿ"}},
{"type":"Feature","geometry":{"type":"Point","coordinates":[77.1353891,16.7616177]},"properties":{"amenity":"post_office","name":"Yadgir Head Post Office","name:kn":"ಯಾದಗಿರಿ ಅಂಚೆ ಕಛೇರಿ","operator":"Government","post_office:type":"Head Office","postal_code":"585201","ref":"585201","source":"Local Knowledge"}},
{"type":"Feature","geometry":{"type":"Point","coordinates":[73.8531763,18.5137558]},"properties":{"amenity":"post_office","name":"Vishrambag Wada","operator":"India Post","operator:wikidata":"Q3519720"}},
{"type":"Feature","geometry":{"type":"Point","coordinates":[77.4263699,8.1775838]},"properties":{"amenity":"post_office","name":"The Professional Couriers","operator":"The Professional Couriers"}},
{"type":"Feature","geometry":{"type":"Point","coordinates":[76.3441065,10.0080643]},"properties":{"amenity":"post_office","name":"Kakkanad","name:ml":"കാക്കനാട്"}},
{"type":"Feature","geometry":{"type":"Point","coordinates":[75.8379069,11.2761099]},"properties":{"amenity":"post_office","name":"Medical College Post Office"}},
{"type":"Feature","geometry":{"type":"Point","coordinates":[76.352469,12.3456071]},"properties":{"amenity":"post_office","name":"Marduru Post Office","name:kn":"ಮರದೂರು ಅಂಚೆ ಕಛೇರಿ"}},
{"type":"Feature","geometry":{"type":"Point","coordinates":[93.0033158,24.7922248]},"properties":{"addr:city":"Lakhipur","addr:housename":"Post Office","addr:postcode":"788103","addr:street":"Lakhipur Town","amenity":"post_office","name":"Post Office"}},
{"type":"Feature","geometry":{"type":"Point","coordinates":[81.7762773,17.0234363]},"properties":{"amenity":"post_office","name":"Sri RamNagar Postoffice"}},
{"type":"Feature","geometry":{"type":"Point","coordinates":[76.4955179,9.0912229]},"properties":{"amenity":"post_office","name":"Vallikavu post office","operator":"India Post","operator:wikidata":"Q3519720"}},
{"type":"Feature","geometry":{"type":"Point","coordinates":[77.135606,16.7511611]},"properties":{"amenity":"post_office","name":"Yadgir Sub Post Office","name:kn":"ಯಾದಗಿರಿ ಉಪ ಅಂಚೆ ಕಛೇರಿ","operator":"Department of Posts","post_office:type":"Sub Office","postal_code":"585202","ref":"585202","source":"Local Knowledge"}},
{"type":"Feature","geometry":{"type":"Point","coordinates":[76.2555579,9.9570613]},"properties":{"amenity":"post_office","name":"Cherlai Post office"}},
{"type":"Feature","geometry":{"type":"Point","coordinates":[76.2585073,9.9592602]},"properties":{"amenity":"post_office","name":"Mattancherry Post Office"}},
{"type":"Feature","geometry":{"type":"Point","coordinates":[76.960548,8.5218347]},"properties":{"amenity":"post_office","name":"Kowdiar Post Office","operator":"Indian Post","ref":"695003","wheelchair":"no"}},
{"type":"Feature","geometry":{"type":"Point","coordinates":[75.0940937,30.483506]},"properties":{"amenity":"post_office","name":"Post Office"}},
{"type":"Feature","geometry":{"type":"Point","coordinates":[74.8796599,31.6223686]},"properties":{"amenity":"post_office","check_date":"2023-12-17","name":"Golden Temple Post Office","operator":"India Post"}},
{"type":"Feature","geometry":{"type":"Point","coordinates":[85.3221479,23.3423566]},"properties":{"amenity":"post_office","name":"Doranda Post Office."}},
{"type":"Feature","geometry":{"type":"Point","coordinates":[85.284052,22.972353]},"properties":{"amenity":"post_office","name":"Murhu Post Office"}},
{"type":"Feature","geometry":{"type":"Point","coordinates":[76.219293,12.317062]},"properties":{"amenity":"post_office","name":"Post Office Kallahalli","name:kn":"ಅಂಚೆ ಕಛೈರಿ"}},
{"type":"Feature","geometry":{"type":"Point","coordinates":[76.186685,12.3386081]},"properties":{"amenity":"post_office","name":"Post Office Chilkunda","name:kn":"ಚಿಲ್ಕುಂದ ಅಂಚೆ ಕಛೈರಿ"}},
{"type":"Feature","geometry":{"type":"Point","coordinates":[76.181845,12.304092]},"properties":{"amenity":"post_office","name":"Post Office Harinahalli","name:kn":"ಅಂಚೆ ಕಛೈರಿ"}},
{"type":"Feature","geometry":{"type":"Point","coordinates":[77.5485639,9.3087855]},"properties":{"amenity":"post_office","name":"Sankarankoil Head Post Office","operator":"Central Government"}},
{"type":"Feature","geometry":{"type":"Point","coordinates":[76.129868,12.220544]},"properties":{"amenity":"post_office","name":"Post Office Neralakuppe","name:kn":"ಅಂಚೆ ಕಛೈರಿ"}},
{"type":"Feature","geometry":{"type":"Point","coordinates":[76.5148104,9.5286734]},"properties":{"amenity":"post_office","name":"Pallom Post Office","operator":"India Post","operator:wikidata":"Q3519720","ref":"686007"}},
{"type":"Feature","geometry":{"type":"Point","coordinates":[75.6519552,30.5541517]},"properties":{"amenity":"post_office","name":"post office"}},
{"type":"Feature","geometry":{"type":"Point","coordinates":[78.5406549,17.4899839]},"properties":{"amenity":"post_office","name":"Post office"}},
{"type":"Feature","geometry":{"type":"Point","coordinates":[78.4874611,9.8535268]},"properties":{"amenity":"post_office","name":"Sivagangai Head Post office"}},
{"type":"Feature","geometry":{"type":"Point","coordinates":[76.291341,12.356247]},"properties":{"amenity":"post_office","name":"Post Office Kattemalalawadi","name:kn":"ಅಂಚೆ ಕಛೈರಿ ಕಟ್ಟೆಮಳಲವಾಡಿ"}},
{"type":"Feature","geometry":{"type":"Point","coordinates":[73.814668,18.5019716]},"properties":{"amenity":"post_office","name":"Kothrud Post Office","name:mr":"कोथरूड टपाल कार्यालय","operator":"India Post","operator:wikidata":"Q3519720","postal_code":"411038"}},
{"type":"Feature","geometry":{"type":"Point","coordinates":[77.2853041,17.180274]},"properties":{"amenity":"post_office","name":"Post Office","name:kn":"ಸೇಡಂ ಅಂಚೆ ಕಛೇರಿ","operator":"India Post"}},
{"type":"Feature","geometry":{"type":"Point","coordinates":[78.264557,17.5347832]},"properties":{"amenity":"post_office","designation":"office","name":"patancheru post office","ref":"post office"}},
{"type":"Feature","geometry":{"type":"Point","coordinates":[77.7322509,13.0319594]},"properties":{"amenity":"post_office","name":"Virgonagar Post Office","name:kn":"ವಿರ್ಗೊನಗರ ಅಂಚೆ ಕಛೇರಿ"}},
{"type":"Feature","geometry":{"type":"Point","coordinates":[75.6513018,30.5545887]},"properties":{"amenity":"post_office","name":"post office"}},
{"type":"Feature","geometry":{"type":"Point","coordinates":[76.6570177,16.1960451]},"properties":{"amenity":"post_office","name":"Hutti Post Office","name:kn":"ಹಟ್ಟಿ ಅಂಚೆ ಕಛೇರಿ","operator":"Government"}},
{"type":"Feature","geometry":{"type":"Point","coordinates":[77.6777437,12.9141805]},"properties":{"amenity":"post_office","brand":"Desk to Desk Courier & Cargo","brand:short":"DTDC","brand:wikidata":"Q55608802","name":"DTDC Courier","operator":"Desk to Desk Courier & Cargo","operator:short":"DTDC","operator:wikidata":"Q55608802","post_office":"post_annex","post_office:brand":"DTDC"}},
{"type":"Feature","geometry":{"type":"Point","coordinates":[79.4170287,12.2523072]},"properties":{"amenity":"post_office","name":"Gingee Post Office"}},
{"type":"Feature","geometry":{"type":"Point","coordinates":[76.3221421,10.2795189]},"properties":{"amenity":"post_office","name":"Annanad post office"}},
{"type":"Feature","geometry":{"type":"Point","coordinates":[72.5960246,22.9983828]},"properties":{"amenity":"post_office","name":"Rambaug Post Office"}},
{"type":"Feature","geometry":{"type":"Point","coordinates":[75.6399896,31.5534154]},"properties":{"addr:postcode":"144201","amenity":"post_office","name":"Bhogpur Post Office"}},
{"type":"Feature","geometry":{"type":"Point","coordinates":[76.853733,9.0369426]},"properties":{"amenity":"post_office","name":"Auvaneeswaram RSPO","operator":"Indian postal service"}},
{"type":"Feature","geometry":{"type":"Point","coordinates":[79.522165,10.7024145]},"properties":{"amenity":"post_office","name":"Koothanallur Post Office"}},
{"type":"Feature","geometry":{"type":"Point","coordinates":[79.5143288,10.7138985]},"properties":{"amenity":"post_office","name":"Lekshmangudi Post Office","operator":"India Post","operator:wikidata":"Q3519720"}},
{"type":"Feature","geometry":{"type":"Point","coordinates":[79.1065331,21.1440075]},"properties":{"amenity":"post_office","name":"Mahal Post Office"}},
{"type":"Feature","geometry":{"type":"Point","coordinates":[78.399984,17.3225737]},"properties":{"amenity":"post_office"}},
{"type":"Feature","geometry":{"type":"Point","coordinates":[72.920506,20.1239342]},"properties":{"amenity":"post_office","name":"Talasari Post Office"}},
{"type":"Feature","geometry":{"type":"Point","coordinates":[76.8472237,9.0247293]},"properties":{"amenity":"post_office","name":"Kunnikode Post"}},
{"type":"Feature","geometry":{"type":"Point","coordinates":[76.6596051,9.7030335]},"properties":{"amenity":"post_office","name":"Puliyanoor Post Office"}},
{"type":"Feature","geometry":{"type":"Point","coordinates":[77.3847833,16.6917077]},"properties":{"amenity":"post_office","name":"Post office","name:kn":"ಅಂಚೆ ಕಛೇರಿ","operator":"Government"}},
{"type":"Feature","geometry":{"type":"Point","coordinates":[77.8115501,14.1547129]},"properties":{"amenity":"post_office","name":"Post Office"}},
{"type":"Feature","geometry":{"type":"Point","coordinates":[80.2589865,13.0231941]},"properties":{"amenity":"post_office","name":"Ramakrishna Nagar"}},
{"type":"Feature","geometry":{"type":"Point","coordinates":[77.4314553,8.1866946]},"properties":{"amenity":"post_office","name":"Nagercoil HPO"}},
{"type":"Feature","geometry":{"type":"Point","coordinates":[77.4317834,8.1837592]},"properties":{"amenity":"post_office"}},
{"type":"Feature","geometry":{"type":"Point","coordinates":[77.5412781,8.1099202]},"properties":{"amenity":"post_office","name":"Mahadanapuram"}},
{"type":"Feature","geometry":{"type":"Point","coordinates":[77.7173739,12.9629625]},"properties":{"amenity":"post_office","brand":"DHL","brand:wikidata":"Q489815","name":"DHL Bluedart","operator":"DHL Bluedart"}},
{"type":"Feature","geometry":{"type":"Point","coordinates":[76.6830393,11.4605931]},"properties":{"amenity":"post_office"}},
{"type":"Feature","geometry":{"type":"Point","coordinates":[75.9163664,14.4581069]},"properties":{"amenity":"post_office","name":"C.G Hospital Post Office"}},
{"type":"Feature","geometry":{"type":"Point","coordinates":[76.77329,30.7516811]},"properties":{"addr:city":"Chandigarh","addr:postcode":"160015","amenity":"post_office","name":"india post","operator":"India Post","operator:wikidata":"Q3519720"}},
{"type":"Feature","geometry":{"type":"Point","coordinates":[77.6913568,12.8149337]},"properties":{"addr:postcode":"560099","alt_name":"Bommasandra Industrial Estate Sub-Office","amenity":"post_office","name":"Bommasandra Post Office","name:kn":"ಬೊಮ್ಮಸಂದ್ರ ಅಂಚೆ ಕಛೇರಿ","operator":"Indian Post","phone":"080-27832176, 080-27833100"}},
{"type":"Feature","geometry":{"type":"Point","coordinates":[72.7522343,21.1402274]},"properties":{"amenity":"post_office"}},
{"type":"Feature","geometry":{"type":"Point","coordinates":[72.78611,21.1672401]},"properties":{"addr:city":"Surat","addr:postcode":"395007","addr:street":"SVNIT campus, Athwalines Road","amenity":"post_office","wheelchair":"yes"}},
{"type":"Feature","geometry":{"type":"Point","coordinates":[73.9196306,15.3009474]},"properties":{"amenity":"post_office"}},
{"type":"Feature","geometry":{"type":"Point","coordinates":[76.881321,16.604669]},"properties":{"amenity":"post_office","is_in":"Hattigudur","name":"Post Office","name:kn":"ಅಂಚೆ ಕಛೇರಿ"}},
{"type":"Feature","geometry":{"type":"Point","coordinates":[76.8528727,16.6307066]},"properties":{"amenity":"post_office","is_in":"Rasthapur","name":"Post Office","name:kn":"ಅಂಚೆ ಕಛೇರಿ"}},
{"type":"Feature","geometry":{"type":"Point","coordinates":[77.3927618,23.2129562]},"properties":{"amenity":"post_office","name":"Nehru Nagar Post Office"}},
{"type":"Feature","geometry":{"type":"Point","coordinates":[75.3177052,12.2259822]},"properties":{"amenity":"post_office","name":"Postoffice"}},
{"type":"Feature","geometry":{"type":"Point","coordinates":[75.8314952,11.4204589]},"properties":{"amenity":"post_office","building":"yes","name":"Nanminda Post Office","survey:date":"2013-11-05"}},
{"type":"Feature","geometry":{"type":"Point","coordinates":[75.4741786,30.7935972]},"properties":{"amenity":"post_office","name":"Head Post Office","operator":"India Post"}},
{"type":"Feature","geometry":{"type":"Point","coordinates":[91.2788349,23.8296712]},"properties":{"amenity":"post_office","name":"Agartala Head Post Office"}},
{"type":"Feature","geometry":{"type":"Point","coordinates":[91.2817821,23.8416997]},"properties":{"amenity":"post_office","name":"Lake Chowmohani Post Office"}},
{"type":"Feature","geometry":{"type":"Point","coordinates":[94.5188251,26.3247553]},"properties":{"amenity":"post_office","name":"Mokokchung Post Office"}},
{"type":"Feature","geometry":{"type":"Point","coordinates":[77.3208347,28.4357082]},"properties":{"amenity":"post_office","fixme":"does post office exists at this location?"}},
{"type":"Feature","geometry":{"type":"Point","coordinates":[75.8946321,11.132457]},"properties":{"addr:postcode":"673635","amenity":"post_office","name":"Calicut University","opening_hours":"Mo-Sa 09:00-21:00","operator":"Govt of India","ref":"673635"}},
{"type":"Feature","geometry":{"type":"Point","coordinates":[76.9934955,8.5036762]},"properties":{"amenity":"post_office","name":"Thirumala Post Office"}},
{"type":"Feature","geometry":{"type":"Point","coordinates":[76.2823343,9.9766463]},"properties":{"amenity":"post_office","name":"College Ground Post Office","operator":"India Post","operator:wikidata":"Q3519720"}},
{"type":"Feature","geometry":{"type":"Point","coordinates":[77.6310198,12.9067131]},"properties":{"amenity":"post_office","name":"Bommanahalli","name:kn":"ಬೊಮ್ಮನಹಳ್ಳಿ","operator":"India Post","operator:wikidata":"Q3519720"}},
{"type":"Feature","geometry":{"type":"Point","coordinates":[77.9887123,16.7397176]},"properties":{"amenity":"post_office","name":"ramnagar post office"}},
{"type":"Feature","geometry":{"type":"Point","coordinates":[76.3853761,9.4934122]},"properties":{"amenity":"post_office","name":"Kuttamangalam Post Office"}},
{"type":"Feature","geometry":{"type":"Point","coordinates":[78.0225339,15.8260561]},"properties":{"amenity":"post_office","check_date":"2024-06-21","name":"SAP Camp Post Office"}},
{"type":"Feature","geometry":{"type":"Point","coordinates":[78.0309976,15.8246219]},"properties":{"addr:street":"New Bus Stand Road","amenity":"post_office","name":"DTDC LOGISTICS"}},
{"type":"Feature","geometry":{"type":"Point","coordinates":[79.5327419,17.9994387]},"properties":{"amenity":"post_office","name":"Post Office"}},
{"type":"Feature","geometry":{"type":"Point","coordinates":[75.8698114,11.0895102]},"properties":{"amenity":"post_office","name":"kodakkd Post Office","operator":"govt"}},
{"type":"Feature","geometry":{"type":"Point","coordinates":[88.4684536,23.4647052]},"properties":{"addr:postcode":"741140","amenity":"post_office","name":"Dalimoula Post Office"}},
{"type":"Feature","geometry":{"type":"Point","coordinates":[77.5915221,12.9772393]},"properties":{"amenity":"post_office","name":"High Court Post Office","name:kn":"ಹೈಕೋರ್ಟ್ ಅಂಚೇ ಕಛೇರಿ","operator":"India Post","operator:wikidata":"Q3519720"}},
{"type":"Feature","geometry":{"type":"Point","coordinates":[77.5854643,12.9366237]},"properties":{"amenity":"post_office","name":"Madhavan Park","name:kn":"ಮಾಧವನ್ ಉದ್ಯಾನವನ","operator":"India Post","operator:wikidata":"Q3519720"}},
{"type":"Feature","geometry":{"type":"Point","coordinates":[82.7721872,24.1810236]},"properties":{"amenity":"post_office","name":"Kakri PO","operator":"India Posts","ref":"231224"}},
{"type":"Feature","geometry":{"type":"Point","coordinates":[80.2364936,26.5119835]},"properties":{"amenity":"post_office"}},
{"type":"Feature","geometry":{"type":"Point","coordinates":[76.3216183,32.211028399999999]},"properties":{"amenity":"post_office","name":"Dharamshala HPO"}},
{"type":"Feature","geometry":{"type":"Point","coordinates":[78.3284983,30.1234531]},"properties":{"amenity":"post_office","name":"Laxman Jhula Post Office"}},
{"type":"Feature","geometry":{"type":"Point","coordinates":[82.0027989,16.5767361]},"properties":{"amenity":"post_office","name":"post office","operator":"Indian Postal"}},
{"type":"Feature","geometry":{"type":"Point","coordinates":[80.13908669999999,17.249425]},"properties":{"amenity":"post_office","name":"Parcel Office","operator":"SCR"}},
{"type":"Feature","geometry":{"type":"Point","coordinates":[78.439501,30.7270425]},"properties":{"amenity":"post_office","name":"Post Office"}},
{"type":"Feature","geometry":{"type":"Point","coordinates":[80.2359386,13.0405796]},"properties":{"addr:city":"Chennai","addr:housenumber":"15","addr:postcode":"600017","addr:street":"Sivagnanam Street","amenity":"post_office","designation":"Thiyagaraya Nagar","name":"Thyagaraya Nagar Post office","operator":"India Post","operator:wikidata":"Q3519720","operator:wikipedia":"en:India Post","phone":"044-24340123","ref":"600017","source":"Bing imagery"}},
{"type":"Feature","geometry":{"type":"Point","coordinates":[73.9309252,15.3495594]},"properties":{"amenity":"post_office","name":"Verna Post Office"}},
{"type":"Feature","geometry":{"type":"Point","coordinates":[73.8989905,15.4262894]},"properties":{"amenity":"post_office","name":"Agaçaim Post Office"}},
{"type":"Feature","geometry":{"type":"Point","coordinates":[88.3549297,22.5588995]},"properties":{"amenity":"post_office","name":"New Market","wikidata":"Q69754832"}},
{"type":"Feature","geometry":{"type":"Point","coordinates":[86.0986208,19.890396]},"properties":{"addr:city":"Konark","addr:district":"Puri","addr:postcode":"752111","amenity":"post_office","name":"Konark Post Office","operator":"India Post","operator:wikidata":"Q3519720"}},
{"type":"Feature","geometry":{"type":"Point","coordinates":[81.5943119,23.1692946]},"properties":{"amenity":"post_office","name":"Anmlai Post Office"}},
{"type":"Feature","geometry":{"type":"Point","coordinates":[76.5304309,9.6599118]},"properties":{"amenity":"post_office","survey:date":"2014-05-07"}},
{"type":"Feature","geometry":{"type":"Point","coordinates":[77.5921023,12.9680121]},"properties":{"amenity":"post_office","name":"Sampangi Rama Nagar Post Office","name:kn":"ಸಂಪಂಗಿರಾಮ ನಗರ ಆಂಚೆ ಕಛೇರಿ","operator":"India Post","operator:wikidata":"Q3519720"}},
{"type":"Feature","geometry":{"type":"Point","coordinates":[74.8375497,12.8585133]},"properties":{"amenity":"post_office","name":"Mangalore Head Post Office","operator":"India Post","ref":"575001"}},
{"type":"Feature","geometry":{"type":"Point","coordinates":[76.7852177,8.661151]},"properties":{"amenity":"post_office","name":"Chirayinkeezhu Post Office"}},
{"type":"Feature","geometry":{"type":"Point","coordinates":[78.2562306,12.9533128]},"properties":{"amenity":"post_office","name":"Sub Post Office, Oorgaum"}},
{"type":"Feature","geometry":{"type":"Point","coordinates":[76.3849759,12.0269105]},"properties":{"amenity":"post_office","name":"Post Office, Tumsoge","name:kn":"ಅಂಚೆ ಕಛೈರಿ"}},
{"type":"Feature","geometry":{"type":"Point","coordinates":[74.6373875,25.3330104]},"properties":{"addr:city":"Bhilwara","addr:street":"Shatsri Nagar","amenity":"post_office","name":"India Post","operator":"India Post","operator:wikidata":"Q3519720"}},
{"type":"Feature","geometry":{"type":"Point","coordinates":[74.6414768,25.3435124]},"properties":{"amenity":"post_office","name":"Nagori Garden","name:hi":"नागोरी गार्डन","operator":"India Post","operator:wikidata":"Q3519720"}},
{"type":"Feature","geometry":{"type":"Point","coordinates":[85.3234752,23.3706308]},"properties":{"amenity":"post_office","name":"Ranchi GPO"}},
{"type":"Feature","geometry":{"type":"Point","coordinates":[76.7503221,9.4940958]},"properties":{"amenity":"post_office","name":"Manimala Post Office"}},
{"type":"Feature","geometry":{"type":"Point","coordinates":[77.5380182,12.9651023]},"properties":{"addr:city":"Bangalore","addr:postcode":"560040","amenity":"post_office","name":"Hampi Nagar Post Office","operator":"India Post","operator:wikidata":"Q3519720"}},
{"type":"Feature","geometry":{"type":"Point","coordinates":[76.6663231,9.4028152]},"properties":{"amenity":"post_office","name":"Vennikulam Post Office"}},
{"type":"Feature","geometry":{"type":"Point","coordinates":[81.0764819,20.5840149]},"properties":{"amenity":"post_office","name":"Post Office","name:ar":"مكتب البريد"}},
{"type":"Feature","geometry":{"type":"Point","coordinates":[77.8940512,29.8637836]},"properties":{"addr:city":"Roorkee","addr:country":"IN","addr:postcode":"247667","amenity":"post_office","description":"This is a post office run by India Post. The post office works on all weekdays from 9 A.M. to 5 P.M., and on Saturdays from 9 A.M. to 2 P.M.","name":"Post Office IITR","opening_hours":"9 A.M. to 5 P.M on weekdays, 9 A.M. to 2 P.M on Saturday","operator":"India Post ( Indian Postal Service )"}},
{"type":"Feature","geometry":{"type":"Point","coordinates":[76.9102921,16.5038903]},"properties":{"amenity":"post_office","name":"Post Office","name:kn":"ಅಂಚೆ ಕಛೇರಿ"}},
{"type":"Feature","geometry":{"type":"Point","coordinates":[77.1574257,28.691496]},"properties":{"amenity":"post_office","name":"Keshav Puram Post Office"}},
{"type":"Feature","geometry":{"type":"Point","coordinates":[75.0187869,15.4394174]},"properties":{"amenity":"post_office","name":"Vidyagiri Post Office","name:kn":"ವಿದ್ಯಾಗಿರಿ ಅಂಚೆ ಕಛೇರಿ"}},
{"type":"Feature","geometry":{"type":"Point","coordinates":[78.3441195,12.7471156]},"properties":{"amenity":"post_office"}},
{"type":"Feature","geometry":{"type":"Point","coordinates":[77.0388668,16.6487452]},"properties":{"amenity":"post_office"}},
{"type":"Feature","geometry":{"type":"Point","coordinates":[75.441525,12.5947186]},"properties":{"amenity":"post_office","designation":"Doddathota S. O. 574248","name":"Doddathota Sub Post Office","operator":"India Post","ref":"http://utilities.cept.gov.in/pinsearch/pinsearch.aspx","source":"http://utilities.cept.gov.in/pinsearch/pinsearch.aspx"}},
{"type":"Feature","geometry":{"type":"Point","coordinates":[76.3901787,9.7499009]},"properties":{"addr:postcode":"686141","amenity":"post_office","name":"Head Post Office"}},
{"type":"Feature","geometry":{"type":"Point","coordinates":[75.7697321,11.2822296]},"properties":{"amenity":"post_office","name":"Post Office - Westhill","opening_hours":"Mo-Sa 09:00-17:00"}},
{"type":"Feature","geometry":{"type":"Point","coordinates":[77.1185477,28.7465512]},"properties":{"amenity":"post_office","name":"DCE Post Office","operator":"Indian Post Services"}},
{"type":"Feature","geometry":{"type":"Point","coordinates":[75.8907776,11.5520134]},"properties":{"amenity":"post_office","name":"Kakkayam post office","name:ml":"കക്കയം തപാലാപ്പീസ്"}},
{"type":"Feature","geometry":{"type":"Point","coordinates":[75.8421043,11.5401179]},"properties":{"amenity":"post_office","name":"Post Office, Koorachundu","name:ml":"കൂരാച്ചുണ്ടു് തപാലാപ്പീസ്"}},
{"type":"Feature","geometry":{"type":"Point","coordinates":[77.0030924,8.6053438]},"properties":{"amenity":"post_office","name":"Nedumangad Post Office","opening_hours":"Mo-Sa 09:30-05:30","operator":"Central Govt. of India"}},
{"type":"Feature","geometry":{"type":"Point","coordinates":[84.8673148,22.2576072]},"properties":{"amenity":"post_office"}},
{"type":"Feature","geometry":{"type":"Point","coordinates":[85.6279899,20.8289638]},"properties":{"amenity":"post_office","name":"Post Office"}},
{"type":"Feature","geometry":{"type":"Point","coordinates":[78.000853,27.1857069]},"properties":{"amenity":"post_office"}},
{"type":"Feature","geometry":{"type":"Point","coordinates":[78.0108163,27.2245101]},"properties":{"amenity":"post_office","name":"DAYAL BAGH,AGRA"}},
{"type":"Feature","geometry":{"type":"Point","coordinates":[76.5481328,15.0893528]},"properties":{"amenity":"post_office"}},
{"type":"Feature","geometry":{"type":"Point","coordinates":[76.0431778,10.5945115]},"properties":{"amenity":"post_office","name":"Guruvayur post office"}},
{"type":"Feature","geometry":{"type":"Point","coordinates":[78.0091699,27.1844808]},"properties":{"amenity":"post_office","name":"Post Office"}},
{"type":"Feature","geometry":{"type":"Point","coordinates":[80.1942323,12.9272104]},"properties":{"amenity":"post_office","name":"Medavakkam Post office"}},
{"type":"Feature","geometry":{"type":"Point","coordinates":[77.9574596,27.2122666]},"properties":{"amenity":"post_office","name":"post office,sikandra"}},
{"type":"Feature","geometry":{"type":"Point","coordinates":[79.0564196,21.1486934]},"properties":{"addr:city":"Nagpur","addr:country":"IN","addr:postcode":"440001","addr:street":"Amravati Rd, Ravinagar","amenity":"post_office","name":"India Post - Ravi Nagar Sub - Post Office","phone":"0712 256 1460","website":"https://www.indiapost.gov.in/"}},
{"type":"Feature","geometry":{"type":"Point","coordinates":[79.1115168,21.1186978]},"properties":{"addr:city":"Nagpur","addr:postcode":"440008","addr:street":"Ayodhya Nagar Rd, Beside BSNL Staff Colony, Ayodhya nagar","amenity":"post_office","name":"Post Office Ayodhya Nager","phone":"1800 11 2011","website":"https://www.indiapost.gov.in/"}},
{"type":"Feature","geometry":{"type":"Point","coordinates":[76.9261593,15.1435864]},"properties":{"amenity":"post_office","name":"Head Post Office","name:kn":"ಮುಖ್ಯ ಅಂಚೆ ಕಛೇರಿ"}},
{"type":"Feature","geometry":{"type":"Point","coordinates":[78.0071627,32.3321491]},"properties":{"amenity":"post_office","name":"Kibber"}},
{"type":"Feature","geometry":{"type":"Point","coordinates":[79.7561665,11.4898105]},"properties":{"amenity":"post_office"}},
{"type":"Feature","geometry":{"type":"Point","coordinates":[76.3506927,15.2665339]},"properties":{"amenity":"post_office","name":"T B Dam Post Office"}},
{"type":"Feature","geometry":{"type":"Point","coordinates":[70.4054857,20.8867459]},"properties":{"amenity":"post_office"}},
{"type":"Feature","geometry":{"type":"Point","coordinates":[78.3308087,13.5629082]},"properties":{"amenity":"post_office","name":"Balthamari","name:kn":"ಬಲ್ತಮರಿ"}},
{"type":"Feature","geometry":{"type":"Point","coordinates":[76.3906937,15.2713757]},"properties":{"amenity":"post_office","name":"Hosapete Post Office","name:kn":"ಅಂಚೆ ಕಛೇರಿ","operator":"India Post","website":"https://www.indiapost.gov.in/"}},
{"type":"Feature","geometry":{"type":"Point","coordinates":[76.3956985,15.2664728]},"properties":{"amenity":"post_office","name":"JP Nagar Post Office","name:kn":"ಅಂಚೆ ಕಛೇರಿ","operator":"India Post","website":"https://www.indiapost.gov.in/"}},
{"type":"Feature","geometry":{"type":"Point","coordinates":[77.3364843,8.219493]},"properties":{"addr:city":"Manakkarai","addr:postcode":"629180","addr:street":"Manakkarai To Villukuri Road","amenity":"post_office","name":"Post office, Manakkarai"}},
{"type":"Feature","geometry":{"type":"Point","coordinates":[86.869536,23.1513392]},"properties":{"amenity":"post_office","name":"baga post office"}},
{"type":"Feature","geometry":{"type":"Point","coordinates":[77.4661628,8.1571873]},"properties":{"amenity":"post_office","name":"Suchindram"}},
{"type":"Feature","geometry":{"type":"Point","coordinates":[72.9010082,19.06298]},"properties":{"addr:city":"mumbai","addr:housenumber":"near machhi market","addr:postcode":"400089","addr:street":"P.L. Lokhande Marg","amenity":"post_office","name":"Chembur Railway Station Post Office","opening_hours":"8:00-22:00","operator":"IndiaPost","shop":"gift"}},
{"type":"Feature","geometry":{"type":"Point","coordinates":[79.6922518,11.4029503]},"properties":{"amenity":"post_office","name":"Chidambaram Head Post Office","operator":"India Post","operator:wikidata":"Q3519720","operator:wikipedia":"en:India Post"}},
{"type":"Feature","geometry":{"type":"Point","coordinates":[76.3953336,14.7588508]},"properties":{"amenity":"post_office","name":"Suladahalli Post Office","name:kn":"ಸೂಲದಹಳ್ಳಿ ಅಂಚೆ ಕಛೇರಿ"}},
{"type":"Feature","geometry":{"type":"Point","coordinates":[77.5898784,12.9065354]},"properties":{"amenity":"post_office","brand":"FedEx","brand:wikidata":"Q459477","check_date":"2023-11-01","name":"FedEx","operator":"FedEx","shop":"copyshop"}},
{"type":"Feature","geometry":{"type":"Point","coordinates":[72.9600414,19.1707616]},"properties":{"addr:city":"Mulund (East)","addr:postcode":"400081","addr:street":"Gawde Road 1","amenity":"post_office","name":"Post Office"}},
{"type":"Feature","geometry":{"type":"Point","coordinates":[72.9563033,19.1738166]},"properties":{"addr:city":"Mulund (West)","addr:postcode":"400080","addr:street":"Subhash Chandra Bose Road","amenity":"post_office","name":"Dhanamabhuvan Post Office"}},
{"type":"Feature","geometry":{"type":"Point","coordinates":[74.9699892,20.060978]},"properties":{"amenity":"post_office","name":"post office"}},
{"type":"Feature","geometry":{"type":"Point","coordinates":[76.6163241,12.3137423]},"properties":{"addr:city":"Mysuru","addr:postcode":"570006","amenity":"post_office"}},
{"type":"Feature","geometry":{"type":"Point","coordinates":[77.7054349,12.9353684]},"properties":{"amenity":"post_office","name":"Panathuru Post Office","name:kn":"ಪಣತೂರು ಅಂಚೆ ಕಛೇರಿ"}},
{"type":"Feature","geometry":{"type":"Point","coordinates":[72.953683,19.1703821]},"properties":{"addr:city":"Mulund (West)","addr:postcode":"400080","addr:street":"Pandit Jawaharlal Nehru Road","amenity":"post_office","name":"Nehru Road Sub Post Office"}},
{"type":"Feature","geometry":{"type":"Point","coordinates":[77.6755039,12.929978]},"properties":{"amenity":"post_office","name":"Bellanduru Post Office","name:kn":"ಬೆಳ್ಳಂದೂರು ಅಂಚೆ ಕಛೇರಿ"}},
{"type":"Feature","geometry":{"type":"Point","coordinates":[75.6074402,20.4383666]},"properties":{"amenity":"post_office","name":"pawar"}},
{"type":"Feature","geometry":{"type":"Point","coordinates":[80.6418447,16.5408542]},"properties":{"amenity":"post_office","name":"Azith Singh Nagar Post Office","operator":"Indian Posts"}},
{"type":"Feature","geometry":{"type":"Point","coordinates":[73.9504888,15.2065026]},"properties":{"amenity":"post_office"}},
{"type":"Feature","geometry":{"type":"Point","coordinates":[78.4623737,17.4068473]},"properties":{"amenity":"post_office","name":"Khairatabad Post Office"}},
{"type":"Feature","geometry":{"type":"Point","coordinates":[73.8119135,15.4716475]},"properties":{"amenity":"post_office","name":"Kerant Post Office"}},
{"type":"Feature","geometry":{"type":"Point","coordinates":[77.2130306,28.6398522]},"properties":{"amenity":"post_office","name":"Pahar Ganj 110055"}},
{"type":"Feature","geometry":{"type":"Point","coordinates":[88.4349577,23.2477147]},"properties":{"addr:postcode":"741404","amenity":"post_office","name":"Santipur post office"}},
{"type":"Feature","geometry":{"type":"Point","coordinates":[73.739691,15.6366366]},"properties":{"amenity":"post_office","name":"Morjim Branch Post Office","opening_hours":"11:30 - 14:30"}},
{"type":"Feature","geometry":{"type":"Point","coordinates":[74.5561788,26.4894364]},"properties":{"amenity":"post_office","name":"Pushkar Bazar Post Office"}},
{"type":"Feature","geometry":{"type":"Point","coordinates":[75.8859942,22.758943]},"properties":{"addr:city":"Indore","addr:postcode":"452010","amenity":"post_office","name":"Vijaynagar Post Office"}},
{"type":"Feature","geometry":{"type":"Point","coordinates":[73.6837735,24.5782975]},"properties":{"amenity":"post_office","opening_hours":"Mo-Sa 11:00-17:00"}},
{"type":"Feature","geometry":{"type":"Point","coordinates":[76.7663211,9.5179707]},"properties":{"amenity":"post_office","name":"Kavumbhagam","name:ml":"കാവുംഭാഗം"}},
{"type":"Feature","geometry":{"type":"Point","coordinates":[72.831554,18.9205619]},"properties":{"amenity":"post_office","name":"Taj Mahal Sub Post Office 400001"}},
{"type":"Feature","geometry":{"type":"Point","coordinates":[74.0493324,15.0070016]},"properties":{"amenity":"post_office","name":"Post of Canacona 403702"}},
{"type":"Feature","geometry":{"type":"Point","coordinates":[71.0243462,20.7503314]},"properties":{"amenity":"post_office"}},
{"type":"Feature","geometry":{"type":"Point","coordinates":[71.820762,21.5218107]},"properties":{"amenity":"post_office"}},
{"type":"Feature","geometry":{"type":"Point","coordinates":[70.0321465,23.1090611]},"properties":{"amenity":"post_office","ref":"370110"}},
{"type":"Feature","geometry":{"type":"Point","coordinates":[77.597431,12.9487986]},"properties":{"amenity":"post_office","name":"Wilson Garden","name:kn":"ಅಂಚೆ ಕಛೇರಿ"}},
{"type":"Feature","geometry":{"type":"Point","coordinates":[71.4666011,22.98895]},"properties":{"amenity":"post_office","ref":"363310"}},
{"type":"Feature","geometry":{"type":"Point","coordinates":[75.3254021,19.8887606]},"properties":{"amenity":"post_office","ref":"431001"}},
{"type":"Feature","geometry":{"type":"Point","coordinates":[72.8305787,18.9278633]},"properties":{"amenity":"post_office","ref":"400032"}},
{"type":"Feature","geometry":{"type":"Point","coordinates":[88.2652238,27.0427195]},"properties":{"amenity":"post_office","name":"Post Office"}},
{"type":"Feature","geometry":{"type":"Point","coordinates":[85.1681543,19.7815927]},"properties":{"amenity":"post_office","name":"Banpur"}},
{"type":"Feature","geometry":{"type":"Point","coordinates":[79.9808001,14.4518718]},"properties":{"amenity":"post_office","name":"Head Post Office"}},
{"type":"Feature","geometry":{"type":"Point","coordinates":[70.4610385,21.5191409]},"properties":{"amenity":"post_office","name":"G.P.O."}},
{"type":"Feature","geometry":{"type":"Point","coordinates":[73.7169872,19.99014]},"properties":{"amenity":"post_office","name":"Post Office Ashoknagar"}},
{"type":"Feature","geometry":{"type":"Point","coordinates":[74.8887253,12.8558798]},"properties":{"amenity":"post_office","name":"Bajalu Post Office","name:kn":"ಬಜಾಲು ಅಂಚೆ ಕಛೇರಿ"}},
{"type":"Feature","geometry":{"type":"Point","coordinates":[74.853569,12.853425]},"properties":{"amenity":"post_office","name":"India Post","name:kn":"ಅಂಚೆ ಕಛೇರಿ"}},
{"type":"Feature","geometry":{"type":"Point","coordinates":[76.7204213,9.2657337]},"properties":{"addr:city":"Pathanamthitta","addr:postcode":"689625","addr:street":"Muttathukonam","amenity":"post_office","collection_times":"14:00","name":"Muttathukonam North Sub Post Office","opening_hours":"Mo-Sa 08:00-18:00+","operator":"Indian Postal Service"}},
{"type":"Feature","geometry":{"type":"Point","coordinates":[77.6392402,12.9818761]},"properties":{"amenity":"post_office","name":"First Flight Couriers Ltd.","website":"https://firstflight.net/"}},
{"type":"Feature","geometry":{"type":"Point","coordinates":[77.6392319,12.9817781]},"properties":{"addr:city":"Bangalore","addr:housenumber":"3","addr:postcode":"560038","addr:street":"9th Cross","amenity":"post_office","name":"The Professional Couriers"}},
{"type":"Feature","geometry":{"type":"Point","coordinates":[77.6410162,12.9815418]},"properties":{"amenity":"post_office","name":"India Post","name:kn":"ಅಂಚೆ ಕಛೇರಿ","operator":"India Post","operator:wikidata":"Q3519720","postal_code":"560038"}},
{"type":"Feature","geometry":{"type":"Point","coordinates":[76.9297379,16.5526159]},"properties":{"amenity":"post_office","is_in":"Madarakal","name":"Post Office","name:kn":"ಅಂಚೆ ಕಛೇರಿ","operator":"Government"}},
{"type":"Feature","geometry":{"type":"Point","coordinates":[76.9556799,16.536304]},"properties":{"addr:place":"Yakchinti","amenity":"post_office","name":"Post Office","name:kn":"ಅಂಚೆ ಕಛೇರಿ"}},
{"type":"Feature","geometry":{"type":"Point","coordinates":[76.958575,16.562367]},"properties":{"amenity":"post_office","name":"Post Office","name:kn":"ಅಂಚೆ ಕಛೇರಿ"}},
{"type":"Feature","geometry":{"type":"Point","coordinates":[77.020526,16.5136222]},"properties":{"addr:place":"Channura","amenity":"post_office","name":"Post Office","name:kn":"ಅಂಚೆ ಕಛೇರಿ","operator":"Government"}},
{"type":"Feature","geometry":{"type":"Point","coordinates":[79.8186205,11.9210509]},"properties":{"addr:housenumber":"77","addr:street":"Dr. Ambedkar Road","amenity":"post_office","brand":"Blue Dart Express","brand:short":"Blue Dart","brand:wikidata":"Q54621493","name":"Blue Dart Express","operator":"Blue Dart Express","operator:short":"Blue Dart","operator:wikidata":"Q54621493"}},
{"type":"Feature","geometry":{"type":"Point","coordinates":[76.5273561,31.709716]},"properties":{"amenity":"post_office","ele":"1"}},
{"type":"Feature","geometry":{"type":"Point","coordinates":[78.4117491,17.4838684]},"properties":{"amenity":"post_office","name":"Kukatpally Post Office","wheelchair":"yes"}},
{"type":"Feature","geometry":{"type":"Point","coordinates":[78.5688683,17.4707027]},"properties":{"amenity":"post_office","name":"ecil post office"}},